[{"name": "台東中華門市","phone": "089-355108","addr": "台東縣台東市中華路二段385號","lat": "22.742613","long": "121.13469800000007"},{"name": "義14門市","phone": "02-2427-8583","addr": "202基隆市中正區義一路14號","lat": "25.1310896","long": "121.74466430000007"},{"name": "基隆新豐門市","phone": "02-24698552","addr": "基隆市中正區新豐街162巷309號","lat": "25.1399713","long": "121.78376760000003"},{"name": "海景門市","phone": "02-2428-4223","addr": "基隆市仁愛區港西街6之2號","lat": "25.1319062","long": "121.74026589999994"},{"name": "基隆麥金門市","phone": "02-24346726","addr": "基隆市安樂區麥金路201號B1","lat": "25.1224478","long": "121.72054879999996"},{"name": "青島西門市","phone": "02-23610295","addr": "100台北市中山區青島西路7號一樓","lat": "25.0449309","long": "121.518194"},{"name": "台醫B1門市","phone": "02-2321-5497","addr": "100台北市中正區中山南路7號B1","lat": "25.0402741","long": "121.51915910000002"},{"name": "紹興門市","phone": "02-23958127","addr": "100台北市中正區忠孝東路一段31號1樓","lat": "25.0445321","long": "121.52550640000004"},{"name": "館前漢口門市","phone": "02-2331-0893","addr": "100台北市中正區館前路26號","lat": "25.0449049","long": "121.51490450000006"},{"name": "京站門市","phone": "02-2552-7432","addr": "103台北市大同區台北轉運站(交九站)承德路一段1號","lat": "25.049311","long": "121.51703399999997"},{"name": "台北圓環門市","phone": "02-2559-8348","addr": "103台北市大同區南京西路288號","lat": "25.053927","long": "121.513958"},{"name": "南京建國門市","phone": "02-2515-1918","addr": "104台北市中山區南京東路三段1號","lat": "25.0522466","long": "121.537375"},{"name": "大直植福門市","phone": "02-85027502","addr": "104台北市中山區敬業二路115號1樓","lat": "25.083203","long": "121.55425400000001"},{"name": "三創門市","phone": "02-23418205","addr": "104台北市中正區市民大道三段2號","lat": "25.0452613","long": "121.53125850000004"},{"name": "南京三民門市","phone": "02-37652625","addr": "105台北市松山區南京東路五段171號1樓","lat": "25.0516909","long": "121.563535"},{"name": "松山機場門市","phone": "02-2545-3398","addr": "105台北市松山區捷運松山機場站敦化北路340-9號","lat": "25.0630038","long": "121.55199459999994"},{"name": "慶城門市","phone": "02-2716-5113","addr": "105台北市松山區慶城街1號慶城街1號","lat": "25.0526511","long": "121.5445436"},{"name": "通化門市","phone": "02-27018950","addr": "106台北市大安區文昌街209號","lat": "25.032484","long": "121.5544423"},{"name": "仁愛延吉門市","phone": "02-27754574","addr": "106台北市大安區延吉街175號","lat": "25.0383322","long": "121.55538109999998"},{"name": "敦誠門市","phone": "02-8773-1626","addr": "106台北市大安區敦化南路一段245號G樓","lat": "25.0440677","long": "121.5491217"},{"name": "西門成都門市","phone": "02-2311-4818","addr": "108台北市萬華區成都路87號","lat": "25.043211","long": "121.50475099999994"},{"name": "艋舺門市","phone": "：02-23028643","addr": "108台北市萬華區西園路一段306巷24號","lat": "25.0335329","long": "121.49845299999993"},{"name": "萬華西藏門市","phone": "02-23031368","addr": "108台北市萬華區西藏路123號","lat": "25.029518","long": "121.50249299999996"},{"name": "西門昆明門市","phone": "02-2314-8250","addr": "108台北市萬華區誠品武昌街二段77號","lat": "25.0452283","long": "121.50576780000006"},{"name": "信義ATT門市","phone": "02-7737-8755","addr": "110台北市信義區ATT","lat": "25.0351071","long": "121.56602099999998"},{"name": "北醫吳興門市","phone": "02-2377-2279","addr": "110台北市信義區吳興街220巷1號","lat": "25.027688","long": "121.56291529999999"},{"name": "松山車站門市","phone": "02-2742-3361","addr": "110台北市信義區松山路11號1樓","lat": "25.0491901","long": "121.57829939999999"},{"name": "信義松德門市","phone": "02-2727-8573","addr": "110台北市信義區信義路六段1號","lat": "25.0338981","long": "121.57478560000004"},{"name": "華碩企總門市","phone": "02-2897-7118","addr": "112台北市北投區立德路15號","lat": "25.1247982","long": "121.47147500000005"},{"name": "振興門市","phone": "02-28216075","addr": "112台北市北投區振興街37號","lat": "25.1176921","long": "121.52244740000003"},{"name": "洲子門市","phone": "02-26589178","addr": "114台北市內湖區洲子街48號","lat": "25.0790972","long": "121.5733017"},{"name": "南港三重門市","phone": "02-2651-5309","addr": "115台北市南港區南港路一段114號","lat": "25.0554258","long": "121.6136295"},{"name": "木新門市","phone": "02-2938-8436","addr": "116台北市文山區木新路3段162號","lat": "24.9819389","long": "121.56107500000007"},{"name": "忠誠門市","phone": "02-2873-5815","addr": "台北市士林區士東路123號","lat": "25.1124712","long": "121.5307209"},{"name": "天母中山門市","phone": "02-28741397","addr": "台北市士林區中山北路6段719號1F","lat": "25.1152217","long": "121.52760890000002"},{"name": "天母崇光門市","phone": "02-2834-9068","addr": "台北市士林區中山北路六段77號B1","lat": "25.1047446","long": "121.52453590000005"},{"name": "士捷門市","phone": "02-2883-1657","addr": "台北市士林區中正路239號(近士林捷運站出口)","lat": "25.0950394","long": "121.5252888"},{"name": "新天母門市","phone": "02-2876-9351","addr": "台北市士林區天母西路33號1樓","lat": "25.1185801","long": "121.52770599999997"},{"name": "天母忠誠門市","phone": "02-2874-5737","addr": "台北市士林區天母東路67-1號1樓","lat": "25.1182618","long": "121.53436060000001"},{"name": "天玉門市門市","phone": "02-28751361","addr": "台北市士林區天玉街38巷18弄1號","lat": "25.1194644","long": "121.52960840000003"},{"name": "士林門市","phone": "02-2880-7805","addr": "台北市士林區文林路122號1樓","lat": "25.0883568","long": "121.5264598"},{"name": "士林承德門市","phone": "02-2885-1251","addr": "台北市士林區承德路四段67號","lat": "25.0817039","long": "121.52322200000003"},{"name": "京站二門市","phone": "02-2552-7178","addr": "台北市大同區承德路一段1號(京站百貨4F)","lat": "25.049311","long": "121.51703399999997"},{"name": "保安門市","phone": "02-25578493","addr": "台北市大同區保安街11號","lat": "25.0593137","long": "121.51320009999995"},{"name": "庫倫承德門市","phone": "02-2592-8122","addr": "台北市大同區庫倫街51號","lat": "25.0720501","long": "121.51925919999996"},{"name": "永康街2F門市","phone": "02-23952157","addr": "台北市大安區永康街2號2樓&2號2樓之一","lat": "25.0334535","long": "121.52982569999995"},{"name": "華視門市","phone": "02-8771-9692","addr": "台北市大安區光復南路180巷14號(華視停車場旁)","lat": "25.0424582","long": "121.55672319999996"},{"name": "辛亥門市","phone": "02-2738-5799","addr": "台北市大安區辛亥路二段175號1樓","lat": "25.0217679","long": "121.541244"},{"name": "和平門市","phone": "02-2369-4200","addr": "台北市大安區和平東路一段2號(古亭站四號出口)","lat": "25.0259788","long": "121.52324950000002"},{"name": "建和門市","phone": "02-2363-9331","addr": "台北市大安區和平東路二段42-1號","lat": "25.025448","long": "121.53721399999995"},{"name": "崇興門市","phone": "02-8772-5940","addr": "台北市大安區忠孝東路三段300號B2","lat": "25.0408932","long": "121.54324169999995"},{"name": "同領門市","phone": "02-8771-0612","addr": "台北市大安區忠孝東路四段201號","lat": "25.0416768","long": "121.55165499999998"},{"name": "忠孝延吉門市","phone": "02-27319584","addr": "台北市大安區忠孝東路四段230號","lat": "25.0412534","long": "121.55382839999993"},{"name": "崇光門市","phone": "02-2771-2826","addr": "台北市大安區忠孝東路四段45號B1","lat": "25.0418698","long": "121.54463290000001"},{"name": "師大雲和門市","phone": "02-2363-8317","addr": "台北市大安區師大路74號","lat": "25.023559","long": "121.52819599999998"},{"name": "復安門市","phone": "02-2775-1187","addr": "台北市大安區復興南路一段135巷9號","lat": "25.0427452","long": "121.54483370000003"},{"name": "興南門市","phone": "02-2325-9473","addr": "台北市大安區復興南路一段323號1樓","lat": "25.0336797","long": "121.54389179999998"},{"name": "興和門市","phone": "02-2701-9918","addr": "台北市大安區復興南路二段275號1樓(近捷運木柵線科技大樓站)","lat": "25.026124","long": "121.54343700000004"},{"name": "敦南門市","phone": "02-2754-9460","addr": "台北市大安區敦化南路二段101號1樓","lat": "25.028745","long": "121.54934800000001"},{"name": "敦和門市","phone": "02-2732-0326","addr": "台北市大安區敦化南路二段263號","lat": "25.0255227","long": "121.54915040000003"},{"name": "敦富門市","phone": "02-2707-4198","addr": "台北市大安區敦化南路二段59號1樓(近敦化南路信義路口)","lat": "25.0281486","long": "121.54654449999998"},{"name": "羅斯福門市","phone": "02-2364-6845","addr": "台北市大安區羅斯福路三段301號","lat": "25.0175439","long": "121.53190410000002"},{"name": "實踐門市","phone": "02-2532-5223","addr": "台北市中山區大直街70號1樓(實踐大學側門)","lat": "25.0846197","long": "121.54574209999998"},{"name": "中山門市","phone": "02-2586-9568","addr": "台北市中山區中山北路二段171號","lat": "25.0629676","long": "121.52285759999995"},{"name": "馬偕門市","phone": "02-2511-6691","addr": "台北市中山區民生西路7號","lat": "25.0579712","long": "121.52168559999996"},{"name": "龍權門市","phone": "02-2517-9259","addr": "台北市中山區民權東路三段22號1樓(民權東路與龍江路口)","lat": "25.0625689","long": "121.54173100000003"},{"name": "民權門市","phone": "02-2504-4751","addr": "台北市中山區民權東路三段88號1樓","lat": "25.0619944","long": "121.54399130000002"},{"name": "林森門市","phone": "02-2542-8870","addr": "台北市中山區林森北路247號1樓","lat": "25.0541344","long": "121.52592690000006"},{"name": "松江門市","phone": "02-2564-2790","addr": "台北市中山區松江路210號","lat": "25.0578497","long": "121.53283570000008"},{"name": "松江長安門市","phone": "02-25235112","addr": "台北市中山區松江路54號1樓","lat": "25.0486393","long": "121.5326761"},{"name": "南京林森門市","phone": "02-2523-4586","addr": "台北市中山區南京東路一段52號","lat": "25.0518795","long": "121.52466619999996"},{"name": "南京復興門市","phone": "02-27515870","addr": "台北市中山區南京東路三段224號1F","lat": "25.0516611","long": "121.54374830000006"},{"name": "美麗華門市","phone": "02-2175-3190","addr": "台北市中山區敬業三路20號","lat": "25.0833072","long": "121.55716480000001"},{"name": "大直樂群門市","phone": "02-85012733","addr": "台北市中山區樂群二路267號1-2F","lat": "25.0801895","long": "121.56063449999999"},{"name": "台鐵一門市","phone": "02-2331-8012","addr": "台北市中正區北平西路3號2樓(台北火車站2樓)","lat": "25.047749","long": "121.51704399999994"},{"name": "忠新門市","phone": "02-2395-7870","addr": "台北市中正區忠孝東路二段134巷2號1樓(捷運忠孝新生站2號出口)","lat": "25.0424017","long": "121.53219569999999"},{"name": "杭州門市","phone": "02-2393-0139","addr": "台北市中正區信義路二段1號之1","lat": "25.0356238","long": "121.52458430000001"},{"name": "南海門市","phone": "02-2396-0860","addr": "台北市中正區南海路20號","lat": "25.0325236","long": "121.51711210000008"},{"name": "許昌南陽門市","phone": "02-2389-9086","addr": "台北市中正區南陽街1號2F","lat": "25.0457437","long": "121.51618209999992"},{"name": "公館水源門市","phone": "02-2368-2805","addr": "台北市中正區思源街16號","lat": "25.0143923","long": "121.53064300000005"},{"name": "重慶門市","phone": "02-2371-3336","addr": "台北市中正區重慶南路一段104號","lat": "25.042508","long": "121.51307199999997"},{"name": "機捷A1門市","phone": "02-23316359","addr": "台北市中正區鄭州路8號B1","lat": "25.0492575","long": "121.51227570000003"},{"name": "懷寧門市","phone": "02-2389-3776","addr": "台北市中正區懷寧街10號1樓","lat": "25.0461498","long": "121.51410799999996"},{"name": "公館門市","phone": "02-2368-5629","addr": "台北市中正區羅斯福路四段26號1樓","lat": "25.0154725","long": "121.53329459999998"},{"name": "寶平門市","phone": "02-2331-0388","addr": "台北市中正區寶慶路32號","lat": "25.0415012","long": "121.50911139999994"},{"name": "環山門市","phone": "02-2799-5897","addr": "台北市內湖區內湖路一段289號(西湖捷運站旁)","lat": "25.0825526","long": "121.5665841"},{"name": "西湖門市","phone": "02-2627-6027","addr": "台北市內湖區內湖路一段360巷2-1號","lat": "25.08111","long": "121.57043499999997"},{"name": "內湖葫洲門市","phone": "02-2631-8356","addr": "台北市內湖區民權東路6段312號1F","lat": "25.0729605","long": "121.60621850000007"},{"name": "內湖民權門市","phone": "02-2793-9550","addr": "台北市內湖區民權東路六段182號","lat": "25.0685791","long": "121.59291959999996"},{"name": "內湖成功門市","phone": "02-2796-3099","addr": "台北市內湖區成功路四段147號1樓","lat": "25.0830084","long": "121.59382920000007"},{"name": "基湖門市","phone": "02-2799-9334","addr": "台北市內湖區基湖路25號","lat": "25.0803921","long": "121.56507120000003"},{"name": "康寧門市","phone": "02-2633-1621","addr": "台北市內湖區康寧路三段72號1樓","lat": "25.0700488","long": "121.61133189999998"},{"name": "內湖陽光門市","phone": "02-8751-9313","addr": "台北市內湖區陽光街290號","lat": "25.0728345","long": "121.57553140000005"},{"name": "舊宗新湖門市","phone": "02-2795-3963","addr": "台北市內湖區新湖二路128號(近內湖大潤發1館)","lat": "25.06072","long": "121.57811600000002"},{"name": "港墘","phone": "02-8753-5105","addr": "台北市內湖區瑞光路216號","lat": "25.0754264","long": "121.57599690000006"},{"name": "瑞傳門市","phone": "02-8798-3266","addr": "台北市內湖區瑞光路476號","lat": "25.078676","long": "121.56954769999993"},{"name": "舊宗門市","phone": "02-8792-8408","addr": "台北市內湖區舊宗路一段188號1樓","lat": "25.0629017","long": "121.57589640000003"},{"name": "木柵門市","phone": "02-2234-3305","addr": "台北市文山區木柵路三段75號","lat": "24.988713","long": "121.56685900000002"},{"name": "政大門市","phone": "02-8661-6613","addr": "台北市文山區指南路二段105號","lat": "24.987836","long": "121.57568900000001"},{"name": "景美門市","phone": "02-89313423","addr": "台北市文山區景興路185號1-2F","lat": "24.9926286","long": "121.54436770000007"},{"name": "萬芳","phone": "02-2933-6950","addr": "台北市文山區興隆路三段111號","lat": "24.9996897","long": "121.55758450000008"},{"name": "關渡","phone": "02-28945123","addr": "台北市北投區大度路三段296巷45號1樓","lat": "25.124494","long": "121.46680900000001"},{"name": "北投大業門市","phone": "0228959507","addr": "台北市北投區大業路302號","lat": "25.128263","long": "121.498291"},{"name": "台北榮總門市","phone": "02-2874-6213","addr": "台北市北投區石牌路二段201號","lat": "25.1192105","long": "121.52038219999997"},{"name": "石牌門市","phone": "02-2827-7832","addr": "台北市北投區石牌路二段74號1~3樓","lat": "25.1165499","long": "121.51623259999997"},{"name": "光明門市","phone": "02-2898-1051","addr": "台北市北投區光明路218-4號","lat": "25.136201","long": "121.50438299999996"},{"name": "陽明山門市","phone": "02-2861-0399","addr": "台北市北投區湖山路一段14號之1","lat": "25.1525189","long": "121.54734600000006"},{"name": "台視門市","phone": "02-2579-3016","addr": "台北市松山區八德路三段10號","lat": "25.0480926","long": "121.55046560000005"},{"name": "京華門市","phone": "02-87616570","addr": "台北市松山區八德路四段138號1樓","lat": "25.0481184","long": "121.56182190000004"},{"name": "民生門市","phone": "02-2712-0428","addr": "台北市松山區民生東路三段105號1樓","lat": "25.0581056","long": "121.54471050000006"},{"name": "宏泰門市","phone": "02-2719-2682","addr": "台北市松山區民生東路三段156-1號","lat": "25.057418","long": "121.54833299999996"},{"name": "三民門市","phone": "02-2767-6603","addr": "台北市松山區民生東路五段158號","lat": "25.058581","long": "121.56285449999996"},{"name": "北寧門市","phone": "02-2570-6312","addr": "台北市松山區南京東路四段56號1樓","lat": "25.0514515","long": "121.55388949999997"},{"name": "敦化門市","phone": "02-2718-2750","addr": "台北市松山區敦化北路147號1樓(近長庚醫院)","lat": "25.055448","long": "121.54969340000002"},{"name": "101B1門市","phone": "02-8101-8511","addr": "台北市信義區市府路45號B1","lat": "25.0334929","long": "121.56410099999994"},{"name": "北醫門市","phone": "02-2732-8509","addr": "台北市信義區吳興街252號1樓(台北醫學院第三醫療大樓一樓)","lat": "25.0267207","long": "121.56340690000002"},{"name": "永春門市","phone": "02-2742-5909","addr": "台北市信義區忠孝東路五段297號1樓","lat": "25.0412392","long": "121.57324930000004"},{"name": "台北時代門市","phone": "02-2722-6292","addr": "台北市信義區忠孝東路五段8號2樓","lat": "25.0408461","long": "121.56539640000005"},{"name": "統豐門市","phone": "02-2746-6635","addr": "台北市信義區東興路65號1樓","lat": "25.0468634","long": "121.56664820000003"},{"name": "Bellavita-B1門市","phone": "02-2723-3390","addr": "台北市信義區松仁路28號B1","lat": "25.0392441","long": "121.56818309999994"},{"name": "松仁門市","phone": "02-2723-1486","addr": "台北市信義區松仁路7號1樓(國泰金控大樓內)","lat": "25.0384845","long": "121.56968210000002"},{"name": "統誠門市","phone": "02-2723-2086","addr": "台北市信義區松高路11號(松高路與松智路口,信義誠品旗艦店1樓)","lat": "25.0396023","long": "121.56577800000002"},{"name": "誠品信義B2","phone": "02-27228601","addr": "台北市信義區松高路11號B2(市府捷運站B2/誠品B2)","lat": "25.0397097","long": "121.56475160000002"},{"name": "新光門市","phone": "02-8789-4099","addr": "台北市信義區松壽路11號1樓(新光三越百貨A11館內)","lat": "25.036608","long": "121.56725699999993"},{"name": "10135F門市","phone": "02-8101-0701","addr": "台北市信義區信義路5段7號35樓之1(台北101大樓內35樓)","lat": "25.033718","long": "121.56480999999997"},{"name": "台北三興","phone": "02-2737-5073","addr": "台北市信義區基隆路二段99之1號","lat": "25.029833","long": "121.55770210000003"},{"name": "南山門市","phone": "02-8786-7793","addr": "台北市信義區莊敬路168號1F(南山人壽總部大樓)","lat": "25.0317939","long": "121.56109140000001"},{"name": "南港門市","phone": "02-2655-1456","addr": "台北市南港區三重路19-10號1樓","lat": "25.057878","long": "121.61349500000006"},{"name": "南港車站門市","phone": "02-2651-5825","addr": "台北市南港區忠孝東路7段359號A棟1樓","lat": "25.0528281","long": "121.60729719999995"},{"name": "南港高鐵門市","phone": "02-26518062","addr": "台北市南港區忠孝東路七段371號B2(南港車站B2)","lat": "25.052905","long": "121.60704750000002"},{"name": "南園門市","phone": "02-2785-0096","addr": "台北市南港區園區街3號2樓之7","lat": "25.0584861","long": "121.61188249999998"},{"name": "西門桂林門市","phone": "02-23616931","addr": "台北市萬華區桂林路1號","lat": "25.037703","long": "121.50618179999992"},{"name": "漢中門市","phone": "02-2370-5893","addr": "台北市萬華區漢中街51號1樓","lat": "25.044047","long": "121.50744789999999"},{"name": "板橋新巨蛋門市","phone": "02-22544539","addr": "220新北市板橋區文化路1段360號","lat": "25.0236277","long": "121.46879990000002"},{"name": "板橋忠孝門市","phone": "02-29559446","addr": "220新北市板橋區忠孝路","lat": "25.0023892","long": "121.46355130000006"},{"name": "板橋萬板門市","phone": "02-22578224","addr": "220新北市板橋區萬板路32號","lat": "25.022339","long": "121.47210300000006"},{"name": "板站捷運門市","phone": "02-89693768","addr": "220新北市板橋區縣民大道二段7號B1","lat": "25.0143985","long": "121.46349220000002"},{"name": "汐止大同門市","phone": "02-86921206","addr": "221新北市汐止區大同路2段500號","lat": "25.0680912","long": "121.66078470000002"},{"name": "汐止湖前門市","phone": "02-26948900","addr": "221新北市汐止區湖前街78","lat": "25.0709429","long": "121.63184180000007"},{"name": "新店中正門市","phone": "02-29182113","addr": "231新北市新店區中正路265號","lat": "24.9739785","long": "121.53797150000003"},{"name": "新店建國門市","phone": "02-2916-1358","addr": "231新北市新店區民權路78號","lat": "24.98311","long": "121.53798089999998"},{"name": "永和中正門市","phone": "02-29486496","addr": "234新北市永和區中正路312號","lat": "24.999511","long": "121.51765599999999"},{"name": "永和愛買門市","phone": "02-2943-3767","addr": "234新北市永和區民生路46巷50號","lat": "24.996642","long": "121.520671"},{"name": "永和頂溪門市","phone": "02-29230670","addr": "234新北市永和區永和路二段181號","lat": "25.0134396","long": "121.51522980000004"},{"name": "雙和醫院門市","phone": "02-2245-9145","addr": "235新北市中和區中正路291號","lat": "24.9926989","long": "121.49352590000001"},{"name": "南勢角門市","phone": "02-86682361","addr": "235新北市中和區和平街1號","lat": "24.9901507","long": "121.50975110000002"},{"name": "中和遠科門市","phone": "02-8227-8012","addr": "235新北市中和區連城路268號","lat": "24.996433","long": "121.48640699999999"},{"name": "土城金城門市","phone": "02-2264-3619","addr": "236新北市土城區金城路三段11號1樓","lat": "24.986388","long": "121.46463599999993"},{"name": "三峽學成門市","phone": "02-35012834","addr": "237新北市三峽區學成路317號","lat": "24.9442851","long": "121.37740299999996"},{"name": "樹林中山","phone": "02-86755269","addr": "238新北市樹林區中山路一段157號","lat": "24.9888227","long": "121.42197779999992"},{"name": "學勤北大門市","phone": "02-3501-7929","addr": "238新北市樹林區家樂福北大店大雅路288號","lat": "24.9473384","long": "121.37991179999995"},{"name": "三重三和門市","phone": "02-8283-9371","addr": "241新北市三重區三和路四段388-2號","lat": "25.0790276","long": "121.48214919999998"},{"name": "三重正義門市","phone": "02-2984-2977","addr": "241新北市三重區正義北路140號","lat": "25.0659851","long": "121.49657079999997"},{"name": "重陽集賢門市","phone": "02-2857-2591","addr": "241新北市三重區集賢路137號","lat": "25.0898427","long": "121.4897929"},{"name": "三重菜寮門市","phone": "02-89853087","addr": "241新北市三重區新北大道1段6號","lat": "25.061548","long": "121.48871639999993"},{"name": "新莊思源門市","phone": "02-29900155","addr": "242新北市新莊區思源路448號","lat": "25.0535091","long": "121.46035110000003"},{"name": "MITSUI門市","phone": "02-26069536","addr": "244新北市林口區文化三路一段356號","lat": "25.0707347","long": "121.3639607"},{"name": "林口文化三門市","phone": "02-26068655","addr": "244新北市林口區文化三路一段359","lat": "25.072868","long": "121.3648528"},{"name": "蘆洲三民門市","phone": "02-28485279","addr": "247新北市蘆洲區三民路120號","lat": "25.0875169","long": "121.47135879999996"},{"name": "蘆洲長榮門市","phone": "02-82863554","addr": "247新北市蘆洲區長榮路418號1樓","lat": "25.0881905","long": "121.45955779999997"},{"name": "淡海門市","phone": "02-26226701","addr": "251新北市淡水區中山北路二段183號1樓","lat": "25.1851752","long": "121.44424320000007"},{"name": "漁人碼頭門市","phone": "02-2805-1113","addr": "251新北市淡水區觀海路91號","lat": "25.183619","long": "121.41429189999997"},{"name": "三重門市","phone": "02-2984-5409","addr": "新北市三重區正義北路13號(門市靠近天台)","lat": "25.0617601","long": "121.49725250000006"},{"name": "二重門市","phone": "02-8512-4050","addr": "新北市三重區重新路五段654號(新莊IKEA旁的家樂福賣場1樓)","lat": "25.0431712","long": "121.46784550000007"},{"name": "土城門市","phone": "02-8273-2039","addr": "新北市土城區青雲路152號1樓","lat": "24.9833595","long": "121.45892320000007"},{"name": "環球門市","phone": "02-3234-0635","addr": "新北市中和區中山路三段122號","lat": "25.0066732","long": "121.47477849999996"},{"name": "立言門市","phone": "02-2226-1773","addr": "新北市中和區中正路866號1F","lat": "25.0057837","long": "121.48434880000002"},{"name": "中科","phone": "02-8226-3573","addr": "新北市中和區建一路152號","lat": "24.9983306","long": "121.48747409999999"},{"name": "中和連城門市","phone": "02-22478140","addr": "新北市中和區連城路71號1-2樓","lat": "25.0011507","long": "121.497481"},{"name": "雙和門市","phone": "02-8231-5476","addr": "新北市永和區中山路一段240號1樓","lat": "25.007575","long": "121.50726729999997"},{"name": "永和永安門市","phone": "02-8921-5223","addr": "新北市永和區安樂路248-7號1F","lat": "25.0036012","long": "121.51472319999993"},{"name": "竹林門市","phone": "02-2921-2560","addr": "新北市永和區竹林路222-1號","lat": "25.0079738","long": "121.52070520000007"},{"name": "東科門市","phone": "02-2696-1269","addr": "新北市汐止區新台五路一段94號1樓","lat": "25.060899","long": "121.64808900000003"},{"name": "汐科門市","phone": "02-2697-1132","addr": "新北市汐止區新台五路一段99號","lat": "25.0619968","long": "121.64848370000004"},{"name": "文化門市","phone": "02-2602-5026","addr": "新北市林口區文化二路一段551號(家樂福隔壁)","lat": "25.0778413","long": "121.37361850000002"},{"name": "板民門市","phone": "02-2962-5438","addr": "新北市板橋區三民路二段23號(板橋三民路上家樂福旁)","lat": "25.0178333","long": "121.47941370000001"},{"name": "遠百中山","phone": "02-29560972","addr": "新北市板橋區中山路一段152號2F","lat": "25.0110399","long": "121.46442300000001"},{"name": "板中門市","phone": "02-2963-5728","addr": "新北市板橋區中山路一段15號1樓","lat": "25.0081989","long": "121.45999140000004"},{"name": "板橋新埔門市","phone": "02-2255-5621","addr": "新北市板橋區文化路1段220號","lat": "25.020378","long": "121.46675700000003"},{"name": "亞東門市","phone": "02-8967-6556","addr": "新北市板橋區南雅南路二段21號(亞東捷運站3號出口亞東醫院旁)","lat": "24.9971313","long": "121.45250110000006"},{"name": "板橋大遠百","phone": "02-2964-3733","addr": "新北市板橋區新站路28號2樓","lat": "25.0130279","long": "121.46695290000002"},{"name": "板站1F門市","phone": "02-89692792","addr": "新北市板橋區縣民大道二段7號1F","lat": "25.0143985","long": "121.46349220000002"},{"name": "板雙門市","phone": "02-2253-1610","addr": "新北市板橋區雙十路二段193號(江子翠捷運站4號出口斜對面)","lat": "25.030009","long": "121.47238900000002"},{"name": "泰山明志門市","phone": "02-8531-1460","addr": "新北市泰山區明志路2段123號","lat": "25.0514276","long": "121.42803509999999"},{"name": "河岸門市","phone": "02-2625-3320","addr": "新北市淡水區中正路205號","lat": "25.1714392","long": "121.43714669999997"},{"name": "淡水門市","phone": "02-2625-5399","addr": "新北市淡水區公明街89號1樓","lat": "25.1683794","long": "121.44402949999994"},{"name": "竹圍門市","phone": "02-8809-7355","addr": "新北市淡水區民權路42號","lat": "25.1370911","long": "121.4597986"},{"name": "新中門市","phone": "02-8919-9008","addr": "新北市新店區中興路三段3號","lat": "24.9777662","long": "121.54524489999994"},{"name": "新店門市","phone": "02-8911-0996","addr": "新北市新店區北新路一段305號","lat": "24.9578555","long": "121.53758370000003"},{"name": "新店門市","phone": "02-8911-0996","addr": "新北市新店區北新路一段305號","lat": "24.967797","long": "121.54126300000007"},{"name": "北新門市","phone": "02-2910-6121","addr": "新北市新店區民權路27號","lat": "24.9827874","long": "121.54087700000002"},{"name": "慈濟門市","phone": "02-8219-2279","addr": "新北市新店區建國路289號2樓","lat": "24.9860629","long": "121.53567620000001"},{"name": "新莊中正門市","phone": "02-2994-7998","addr": "新北市新莊區中正路178號","lat": "25.0357569","long": "121.44997660000001"},{"name": "新莊雙鳳門市","phone": "02-2907-2461","addr": "新北市新莊區中正路702號","lat": "25.0265086","long": "121.41752270000006"},{"name": "新莊門市","phone": "02-2998-4957","addr": "新北市新莊區幸福路763-3號1F之1(新莊中和街與幸福路交叉口佳瑪賣場)","lat": "25.0489867","long": "121.44756600000005"},{"name": "新莊新泰門市","phone": "02-89922575","addr": "新北市新莊區新泰路308號1-2樓","lat": "25.0412372","long": "121.44540529999995"},{"name": "鶯歌門市","phone": "02-86773608","addr": "新北市鶯歌區育英街67號","lat": "24.9521798","long": "121.34732510000003"},{"name": "中壢元化門市","phone": "03-426-0162","addr": "320桃園市中壢區元化路305號","lat": "24.9622355","long": "121.22516569999993"},{"name": "青埔華泰","phone": "03-2870084","addr": "320桃園市中壢區春德路189號","lat": "25.0145382","long": "121.21279090000007"},{"name": "青埔門市","phone": "03-263-5299","addr": "320桃園市中壢區高速鐵路高鐵北路一段6號","lat": "25.0132116","long": "121.21488959999999"},{"name": "大有三越門市","phone": "03-3314825","addr": "330桃園市桃園區大有路189號1樓","lat": "25.0081315","long": "121.32002779999993"},{"name": "桃園台鐵門市","phone": "03-3679014","addr": "330桃園市桃園區中正路1號2樓","lat": "24.9892245","long": "121.31289259999994"},{"name": "桃園成功門市","phone": "03-3478230","addr": "330桃園市桃園區成功路一段2號","lat": "24.9931449","long": "121.31307649999997"},{"name": "八德桃大門市","phone": "03-3648188","addr": "334桃園市八德區金和路35號","lat": "24.9551438","long": "121.29734380000002"},{"name": "大溪門市","phone": "03-387-8327","addr": "335桃園市大溪區慈湖路49及51號","lat": "24.8825891","long": "121.28904569999997"},{"name": "大園門市","phone": "03-3864842","addr": "337桃園市大園區中正東路","lat": "25.0595323","long": "121.21037810000007"},{"name": "一航廈3F門市","phone": "03-3834802","addr": "337桃園市大園區埔心村航站南路15號3樓","lat": "25.0811","long": "121.23702100000003"},{"name": "二航廈B2門市","phone": "03-393-1657","addr": "337桃園市大園區航站南路9號(二航廈B2)","lat": "25.0765379","long": "121.23229089999995"},{"name": "南崁特力門市","phone": "03-212-3901","addr": "338桃園市蘆竹區中正路1號","lat": "25.0403322","long": "121.29517499999997"},{"name": "南崁門市","phone": "03-2120-568","addr": "338桃園市蘆竹區南山路一段2-5號","lat": "25.0493764","long": "121.29186879999997"},{"name": "八德廣豐門市","phone": "03-3742530","addr": "桃園市八德區介壽路一段728號1樓(廣豐新天地)","lat": "24.9650292","long": "121.29904169999998"},{"name": "二航管制區門市","phone": "03-393-2426","addr": "桃園市大園區航站南路9號(二航廈管制區內4F商場內)","lat": "25.0771146","long": "121.23316929999999"},{"name": "中壢海華門市","phone": "03-427-0047","addr": "桃園市中壢區九和二街13號1樓","lat": "24.9630591","long": "121.22431080000001"},{"name": "復興門市","phone": "03-280-4279","addr": "桃園市中壢區中山路138號1樓","lat": "24.9559271","long": "121.2248621"},{"name": "中原大學門市","phone": "03-4667601","addr": "桃園市中壢區中北路200號(維澈樓1F)","lat": "24.9569826","long": "121.2410188"},{"name": "內壢門市","phone": "03-461-1770","addr": "桃園市中壢區中華路一段450號1樓(內壢家樂福)","lat": "24.9724364","long": "121.25364680000007"},{"name": "中壢大江門市","phone": "03-468-0130","addr": "桃園市中壢區中園路二段509號1樓","lat": "25.001673","long": "121.229018"},{"name": "內壢環中東門市","phone": "03-4611764","addr": "桃園市中壢區環中東路168號","lat": "24.9494026","long": "121.23682710000003"},{"name": "平鎮家樂福門市","phone": "03-4192905","addr": "桃園市平鎮區莊敬里48鄰坤慶路1號","lat": "24.9026362","long": "121.21245090000002"},{"name": "桃興門市","phone": "03-301-6316","addr": "桃園市桃園區大興西路二段76巷6號(桃園醫mall醫療中心)","lat": "25.0120781","long": "121.29851510000003"},{"name": "桃園中山門市","phone": "03-3783662","addr": "桃園市桃園區中山路879號","lat": "24.9888312","long": "121.2864922"},{"name": "桃愛門市","phone": "03-378-0838","addr": "桃園市桃園區中山路939號(愛買購物中心內)","lat": "24.9857091","long": "121.28432550000002"},{"name": "桃園遠百門市","phone": "03-332-1938","addr": "桃園市桃園區中正路20號B1","lat": "24.9897388","long": "121.31379479999998"},{"name": "桃園藝文門市","phone": "03-3150432","addr": "桃園市桃園區同德五街61號1樓","lat": "25.0145768","long": "121.30052"},{"name": "桃鶯門市","phone": "03-3765172","addr": "桃園市桃園區桃鶯路192之1號","lat": "24.9824633","long": "121.31775019999998"},{"name": "桃園復興門市","phone": "03-331-1608","addr": "桃園市桃園區復興路186號1F","lat": "24.990383","long": "121.31152739999993"},{"name": "經國門市","phone": "03-346-6137","addr": "桃園市桃園區經國路369號1樓(家樂福一樓)","lat": "25.0158565","long": "121.30491440000003"},{"name": "經國二","phone": "03-3461905","addr": "桃園市桃園區經國路737號","lat": "25.0251889","long": "121.30138699999998"},{"name": "桃園縣府門市","phone": "03331-6833","addr": "桃園市桃園區縣府路116號1F","lat": "24.9944307","long": "121.30213170000002"},{"name": "楊梅埔心門市","phone": "03-4826825","addr": "桃園市楊梅區中山北路二段287號","lat": "24.9111305","long": "121.17430349999995"},{"name": "龍潭門市","phone": "03-470-8676","addr": "桃園市龍潭區北龍路292-1及292-2號","lat": "24.8681253","long": "121.21828579999999"},{"name": "龜山A7門市","phone": "03-211-4654","addr": "桃園市龜山區文青路199號1樓","lat": "25.0401885","long": "121.38864289999992"},{"name": "龜山復興門市","phone": "03-318-4610","addr": "桃園市龜山區復興北路1號","lat": "25.059746","long": "121.36894340000003"},{"name": "龜山迴龍門市","phone": "02-82000311","addr": "桃園市龜山區萬壽路一段166號","lat": "25.0182174","long": "121.40550089999999"},{"name": "桃園台茂門市","phone": "03-311-2960","addr": "桃園市蘆竹區南崁路一段112號(台茂購物中心)","lat": "25.053471","long": "121.28839199999993"},{"name": "新竹竹光門市","phone": "03-5241154","addr": "300新竹市北區西大路687號","lat": "24.8111353","long": "120.95687139999995"},{"name": "新竹北大門市","phone": "03-531-8292","addr": "300新竹市東區北大路109","lat": "24.8102647","long": "120.96908710000002"},{"name": "研新門市","phone": "03-578-5032","addr": "300新竹市東區研新二路6號","lat": "24.7786387","long": "120.99250189999998"},{"name": "台積電P4門市","phone": "03-579-5983","addr": "300新竹市東區園區二路168號","lat": "24.7704647","long": "121.01247290000003"},{"name": "聯發科門市","phone": "03-6687104","addr": "300新竹市東區篤行一路1號","lat": "24.7721768","long": "121.0238134"},{"name": "新竹日光門市","phone": "03-668-6823","addr": "300新竹市東區關新路38號","lat": "24.7852579","long": "121.0188736"},{"name": "新竹達門市","phone": "03-5794589","addr": "新竹市東區力行二路1號(友達光電總部大樓)","lat": "24.7739636","long": "121.01932590000001"},{"name": "新竹巨城門市","phone": "03-515-2906","addr": "新竹市東區中央路223號1樓(新竹巨城購物中心)","lat": "24.809425","long": "120.97546399999999"},{"name": "介壽門市","phone": "03-666-7446","addr": "新竹市東區介壽路47號(介壽路與金山街口)","lat": "24.7786865","long": "121.01941839999995"},{"name": "公道五門市","phone": "03-5721341","addr": "新竹市東區公道五路二段469號1樓","lat": "24.8044459","long": "120.99297090000005"},{"name": "新竹站前SOGO","phone": "03-5283861","addr": "新竹市東區民族路2號(SOGO百貨)","lat": "24.8024723","long": "120.97206329999995"},{"name": "光復清大門市","phone": "03-5719138","addr": "新竹市東區光復路二段406號","lat": "24.7971956","long": "120.99665470000002"},{"name": "西大門市","phone": "03-527-7126","addr": "新竹市東區西大路323號1樓","lat": "24.8019347","long": "120.96483739999996"},{"name": "新竹護城河門市","phone": "03-5228661","addr": "新竹市東區林森路18號","lat": "24.8021098","long": "120.97041839999997"},{"name": "台積電門市","phone": "03-567-0925","addr": "新竹市東區新竹科學園區力行六路8號4樓","lat": "24.7730433","long": "121.01280029999998"},{"name": "竹北文興門市","phone": "03-668-5826","addr": "302新竹縣竹北市文興路一段186號","lat": "24.8108815","long": "121.0274895"},{"name": "台元門市","phone": "03-560-0516","addr": "302新竹縣竹北市台元街34號","lat": "24.8430113","long": "121.0165313"},{"name": "新竹北門市","phone": "03-558-8422","addr": "302新竹縣竹北市光明一路372號","lat": "24.8309915","long": "121.01278330000002"},{"name": "竹北光明門市","phone": "03-550-4218","addr": "302新竹縣竹北市光明六路東一段316號","lat": "24.8197423","long": "121.02764290000005"},{"name": "六家門市","phone": "03-611-9866","addr": "302新竹縣竹北市高鐵七路6號","lat": "24.8080601","long": "121.04041519999998"},{"name": "園區門市","phone": "03-6662818","addr": "308新竹市北區新竹科學工業園區研新一路9號1樓","lat": "24.77517","long": "120.99029700000006"},{"name": "台元二","phone": "03-5601780","addr": "新竹縣竹北市台元一街2號","lat": "24.841019","long": "121.01914790000001"},{"name": "竹北自強門市","phone": "03-6583844","addr": "新竹縣竹北市自強南路182號","lat": "24.8153693","long": "121.02435289999994"},{"name": "苗栗高鐵門市","phone": "03-7248195","addr": "356苗栗縣後龍鎮新港三路268號","lat": "24.6034801","long": "120.82339430000002"},{"name": "台中新時代門市","phone": "04-2220-8778","addr": "401台中市東區新時代購物中心復興路四段186號","lat": "24.136316","long": "120.68781860000001"},{"name": "文心大慶門市","phone": "04-22654607","addr": "402台中市南區文心南路542號","lat": "24.1203146","long": "120.65091010000003"},{"name": "園道門市","phone": "04-2326-4692","addr": "403台中市西區公益路68號","lat": "24.1512354","long": "120.66384800000003"},{"name": "中醫二門市","phone": "04-2233-8477","addr": "404台中市北區學士路2號","lat": "24.1540353","long": "120.68338970000002"},{"name": "台中友達門市","phone": "04-2463-9266","addr": "407台中市西屯區中科路1號","lat": "24.2085787","long": "120.61408089999998"},{"name": "台中三越11門市","phone": "04-22515371","addr": "407台中市西屯區台灣大道三段301號11樓","lat": "24.1652572","long": "120.64370830000007"},{"name": "朝富門市","phone": "04-2251-1366","addr": "407台中市西屯區朝富路83號","lat": "24.1660649","long": "120.63755600000002"},{"name": "向心門市","phone": "04-2471-4033","addr": "408台中市南屯區文心路一段197號","lat": "24.142397","long": "120.64645999999993"},{"name": "大里門市","phone": "04-2406-2933","addr": "412台中市大里區國光路二段411-1號","lat": "24.1092615","long": "120.67960779999999"},{"name": "泰安門市","phone": "04-2558-2038","addr": "421台中市后里區雲頭路3-2號","lat": "24.3252673","long": "120.7149015"},{"name": "沙鹿門市","phone": "04-26368172","addr": "433台中市沙鹿區沙田路103號","lat": "24.234697","long": "120.55857349999997"},{"name": "大里中興門市","phone": "04-24960884","addr": "台中市大里區中興路一段173之25號","lat": "24.0888714","long": "120.69480320000002"},{"name": "松竹門市","phone": "04-2247-5532","addr": "台中市北屯區松竹路二段350號","lat": "24.1495322","long": "120.71329839999999"},{"name": "松竹門市","phone": "04-2247-5532","addr": "台中市北屯區松竹路二段350號","lat": "24.1825393","long": "120.69064950000006"},{"name": "中友門市","phone": "04-2223-5596","addr": "台中市北區三民路三段161號1樓C棟","lat": "24.1520729","long": "120.684754"},{"name": "台中麗寶門市","phone": "04-25584451","addr": "台中市后里區福容路201號","lat": "24.324317","long": "120.69931599999995"},{"name": "新國門市","phone": "04-2252-2475","addr": "台中市西屯區市政北一路1號(文心路與市政北一路口)","lat": "24.1566234","long": "120.64650280000001"},{"name": "福康門市","phone": "04-2463-4658","addr": "台中市西屯區福康路1.3號1樓","lat": "24.1829308","long": "120.61644030000002"},{"name": "中港門市","phone": "04-2319-8566","addr": "台中市西區台灣大道二段363號","lat": "24.1541403","long": "120.66443179999999"},{"name": "大英門市","phone": "04-2327-3525","addr": "台中市南屯區公益路二段131號","lat": "24.1507218","long": "120.64853829999993"},{"name": "豐原家樂福門市","phone": "04-25256830","addr": "台中市豐原區成功路500號1F","lat": "24.2520284","long": "120.70613609999998"},{"name": "彰基門市","phone": "04-723-9296","addr": "彰化縣彰化市旭光路235號","lat": "24.0710955","long": "120.54531509999993"},{"name": "雲林高鐵門市","phone": "05-7005317","addr": "632雲林縣虎尾鎮站前東路301號","lat": "23.7363314","long": "120.41649440000003"},{"name": "嘉義高鐵門市","phone": "05-310-9077","addr": "嘉義縣太保市高鐵西路168號","lat": "23.4591718","long": "120.32296700000006"},{"name": "嘉義中山門市","phone": "05-2276456","addr": "嘉義市東、西區中山路471號","lat": "23.4794775","long": "120.44563849999997"},{"name": "南投休息站門市","phone": "049-224-7487","addr": "540南投縣南投市振興里南鄉路250巷142弄6號","lat": "23.8999225","long": "120.71133580000003"},{"name": "日月潭門市","phone": "049-285-6849","addr": "555南投縣魚池鄉中山路101號","lat": "23.865315","long": "120.91236300000003"},{"name": "台南健康門市","phone": "06-2143659","addr": "700台南市中西區健康路一段36號","lat": "22.9813612","long": "120.21073079999996"},{"name": "長榮門市","phone": "06-200-5550","addr": "701台南市東區長榮路三段139號","lat": "22.9959501","long": "120.22161800000003"},{"name": "台南北安門市","phone": "06-2472561","addr": "709南市安南區北安路三段156號","lat": "23.0423257","long": "120.20340320000003"},{"name": "台南歸仁門市","phone": "06-2304929","addr": "711台南市歸仁區中山路二段118號1F","lat": "22.9673228","long": "120.29100700000004"},{"name": "仁德北門市","phone": "06-278-3426","addr": "717台南市仁德區中洲村中洲1-16號","lat": "22.9061323","long": "120.26494379999997"},{"name": "三越中山門市","phone": "06-222-1438","addr": "台南市中西區中山路162號B1(新光三越)","lat": "22.9952132","long": "120.20983879999994"},{"name": "台南西門門市","phone": "06-2234739","addr": "台南市中西區西門路二段120號","lat": "22.9935473","long": "120.19900419999999"},{"name": "南台科大門市","phone": "06-2433283","addr": "台南市永康區南台街一號(W棟)","lat": "23.0225666","long": "120.22528829999999"},{"name": "台南東門門市","phone": "06-2673344","addr": "台南市東區東門路三段138號","lat": "22.9782066","long": "120.23294299999998"},{"name": "台南善化門市","phone": "06-5814268","addr": "台南市善化區大同路2號","lat": "23.1269796","long": "120.29387079999992"},{"name": "三多門市","phone": "07-338-4586","addr": "802高雄市苓雅區三多三路234號1.2.3樓","lat": "22.614752","long": "120.30636300000003"},{"name": "青年門市","phone": "07-330-4369","addr": "802高雄市苓雅區成功一路221號","lat": "22.6177968","long": "120.29606979999994"},{"name": "高雄瑞隆門市","phone": "07-7151200","addr": "806高雄市前鎮區瑞隆路438號","lat": "22.605538","long": "120.3295468"},{"name": "楠梓德民門市","phone": "07-3641347","addr": "811高雄市楠梓區德民路828號","lat": "22.633664","long": "120.28608199999996"},{"name": "裕誠門市","phone": "07-558-4770","addr": "813高雄市左營區裕誠路396號","lat": "22.6695926","long": "120.30228599999998"},{"name": "左營高鐵門市","phone": "07-862-0622","addr": "高雄市左營區高鐵路105號2F","lat": "22.683386","long": "120.30493150000007"},{"name": "中央公園門市","phone": "07-2211459","addr": "高雄市前金區五福三路31號","lat": "22.67254","long": "120.304663"},{"name": "高雄時代門市","phone": "07-8230397","addr": "高雄市前鎮區中華五路789號4樓","lat": "22.5950447","long": "120.3071367"},{"name": "楠梓日月光門市","phone": "07-3631-467","addr": "高雄市楠梓區楠梓加工出口區第二園區研發路66號1F","lat": "22.7144656","long": "120.29994799999997"},{"name": "鳳山光遠門市","phone": "07-7407540","addr": "高雄市鳳山區光遠路396號","lat": "22.6262175","long": "120.35715640000001"},{"name": "恆春門市","phone": "08-8882241","addr": "屏東縣恆春鎮恒公路952-1號","lat": "22.0083951","long": "120.74045339999998"},{"name": "羅東門市","phone": "03-956-7312","addr": "265宜蘭縣羅東鎮興東路97號","lat": "24.6787956","long": "121.76856380000004"}]