[{"name": "北投區行政中心","lng": "121.502695","lat": "25.132671","addr": "臺北市北投區新市街30號3樓(戶政事務所綜合受理1號櫃台前上方天花板)"},{"name": "北投區行政中心","lng": "121.502691","lat": "25.132671","addr": "臺北市北投區新市街30號3樓(志工服務台上方)"},{"name": "北投區行政中心","lng": "121.502697","lat": "25.132671","addr": "臺北市北投區新市街30號4樓(好便利11號櫃檯前天花板)"},{"name": "北投區行政中心","lng": "121.502693","lat": "25.132675","addr": "臺北市北投區新市街30號5樓(就業服務處門前天花板)"},{"name": "秀山民眾閱覽室","lng": "121.493118","lat": "25.145577","addr": "臺北市北投區中和街534號6樓(閱讀室牌示正前方2塊天花板處)"},{"name": "秀山民眾閱覽室","lng": "121.493114","lat": "25.145577","addr": "臺北市北投區中和街534號7樓(自修區牌示正後方三塊天花板處)"},{"name": "清江分館","lng": "121.50735","lat": "25.127735","addr": "臺北市北投區公館路198號3樓(自修室上方)"},{"name": "清江分館","lng": "121.50735","lat": "25.127733","addr": "臺北市北投區公館路198號3樓(筆電區上方)"},{"name": "永明民眾閱覽室","lng": "121.517178","lat": "25.118068","addr": "臺北市北投區石牌路二段115號8樓(座位區第一張桌子上方)"},{"name": "吉利分館","lng": "121.508385","lat": "25.119306","addr": "臺北市北投區立農街一段366號5樓(自修室正中央天花板上)"},{"name": "北投分館","lng": "121.506296","lat": "25.136298","addr": "臺北市北投區光明路251號1樓【中文圖書區中間位置天花板內】"},{"name": "北投分館","lng": "121.506298","lat": "25.136298","addr": "臺北市北投區光明路251號1樓【閱報區中間位置天花板內】"},{"name": "北投分館","lng": "121.506294","lat": "25.136298","addr": "臺北市北投區光明路251號2樓【多功能討論室門前天花板內】"},{"name": "北投分館","lng": "121.506292","lat": "25.136298","addr": "臺北市北投區光明路251號B1【閱讀區中間位置天花板內】"},{"name": "石牌分館","lng": "121.52266","lat": "25.113177","addr": "臺北市北投區明德路208巷5號3樓【自修室中間上方處)】"},{"name": "石牌分館","lng": "121.52268","lat": "25.113177","addr": "臺北市北投區明德路208巷5號4樓【期刊區與綜合服務區上方處(維修孔)】"},{"name": "中興院區","lng": "121.509523","lat": "25.051656","addr": "臺北市大同區鄭州路145號2樓(眼科外走道)"},{"name": "石牌分館","lng": "121.52262","lat": "25.113177","addr": "臺北市北投區明德路208巷5號6樓【開架閱覽室中間處(維修孔)】"},{"name": "石牌分館","lng": "121.52266","lat": "25.113175","addr": "臺北市北投區明德路208巷5號7樓【外文書籍區上方(維修孔)】"},{"name": "石牌分館","lng": "121.52266","lat": "25.113173","addr": "臺北市北投區明德路208巷5號8樓【參考資料區靠窗戶邊上方(維修孔)】"},{"name": "稻香分館","lng": "121.489538","lat": "25.140952","addr": "臺北市北投區稻香路81號3樓(一般圖書區右方14號櫃前天花板)"},{"name": "關渡醫院","lng": "121.4664","lat": "25.12049","addr": "臺北市北投區知行路225巷12號(1F等候大廳中央天花板)"},{"name": "關渡醫院","lng": "121.4661","lat": "25.12031","addr": "臺北市北投區知行路225巷12號(3F復健科內天花板)"},{"name": "捷運北投會館","lng": "121.4836","lat": "25.1347","addr": "臺北市北投區大業路527巷88號(1F房間編號116號前上方天花板)"},{"name": "捷運北投會館","lng": "121.4837","lat": "25.13492","addr": "臺北市北投區大業路527巷88號(B2櫃檯前上方)"},{"name": "捷運北投會館","lng": "121.483955","lat": "25.135798","addr": "臺北市北投區大業路527巷88號B1F(OK便利商店前)"},{"name": "北投垃圾焚化廠","lng": "121.500386","lat": "25.107804","addr": "臺北市北投區洲美街271號(2FK書中心)"},{"name": "北投垃圾焚化廠","lng": "121.500384","lat": "25.107804","addr": "臺北市北投區洲美街271號(2F閱覽室樓梯口正上方)"},{"name": "關渡水岸公園自行車租借站","lng": "121.463461","lat": "25.116998","addr": "臺北市北投區知行路，關渡宮北側，關渡碼頭旁(租借站內櫃台桌上)"},{"name": "北投分處","lng": "121.502693","lat": "25.132679","addr": "臺北市北投區新市街30號3樓(北投分處辦公區後方櫃上)"},{"name": "浩然敬老院-致中樓","lng": "121.467736","lat": "25.118366","addr": "臺北市北投區知行路75號(1F陶藝教室內)"},{"name": "陽明山臻愛樓","lng": "121.527475","lat": "25.14203","addr": "臺北市北投區泉源路220號(陽明山臻愛樓一樓中央天花板上)"},{"name": "捷運石牌站轉乘停車場","lng": "121.5142","lat": "25.11641","addr": "臺北市北投區石牌路一段200號(收費票亭牆上)"},{"name": "景安站","lng": "121.50501","lat": "24.99416","addr": "新北市中和區景安路142號"},{"name": "捷運北投站轉乘停車場","lng": "121.4996","lat": "25.13053","addr": "臺北市北投區光明路1號(收費票亭牆上)"},{"name": "北投文化區民活動中心","lng": "121.496231","lat": "25.136692","addr": "臺北市北投區文化三路3號4,5樓(中央天花板上)"},{"name": "北投關渡區民活動中心","lng": "121.466321","lat": "25.12311","addr": "臺北市北投區大度路3段301巷1號(進去右側上方天花板上)"},{"name": "大安區行政中心","lng": "121.534511","lat": "25.026421","addr": "臺北市大安區新生南路二段86號1樓(9號服務台上方)"},{"name": "大安區行政中心","lng": "121.534515","lat": "25.026421","addr": "臺北市大安區新生南路二段86號3樓(門口進入圓型座位區上方)"},{"name": "大安區行政中心","lng": "121.534517","lat": "25.026421","addr": "臺北市大安區新生南路二段86號8樓(進門民眾休息區第一排座位上方)"},{"name": "龍安民眾閱覽室","lng": "121.529601","lat": "25.028559","addr": "臺北市大安區永康街60號2樓(期刊區上方)"},{"name": "龍安民眾閱覽室","lng": "121.529603","lat": "25.028559","addr": "臺北市大安區永康街60號3樓(自修室中央上方處)"},{"name": "道藩分館","lng": "121.544049","lat": "25.021577","addr": "臺北市大安區辛亥路三段11號3樓(閱覽區後方靠書庫區上方天花板)"},{"name": "道藩分館","lng": "121.544048","lat": "25.021577","addr": "臺北市大安區辛亥路三段11號3樓(綜合服務台前方資訊檢索區吊牌旁)"},{"name": "大安分館","lng": "121.550787","lat": "25.016021","addr": "臺北市大安區辛亥路三段223號5樓(自修室之中心位置)"},{"name": "成功民眾閱覽室","lng": "121.545211","lat": "25.025442","addr": "臺北市大安區和平東路二段311巷29號4樓(參考資料書櫃4A上方)"},{"name": "延吉民眾閱覽室","lng": "121.555025","lat": "25.036117","addr": "臺北市大安區延吉街236巷17號3樓(過期報紙區、書庫區與網路查詢區之橫樑上)"},{"name": "延吉民眾閱覽室","lng": "121.555028","lat": "25.036117","addr": "臺北市大安區延吉街236巷17號4樓(自修區由大門入口右前方之樑上)"},{"name": "總館","lng": "121.538366","lat": "25.029152","addr": "臺北市大安區建國南路二段125號1樓(大門入口處右前方之樑柱上方位置)"},{"name": "總館","lng": "121.538369","lat": "25.029151","addr": "臺北市大安區建國南路二段125號2樓(期刊室內後方往盥洗室之樑柱上)"},{"name": "總館","lng": "121.538369","lat": "25.029153","addr": "臺北市大安區建國南路二段125號3樓(諮詢服務課內之自修區後方之樑柱上)"},{"name": "總館","lng": "121.538369","lat": "25.029154","addr": "臺北市大安區建國南路二段125號4樓(閱覽室(一)內之自修區後方之樑柱上)"},{"name": "總館","lng": "121.538369","lat": "25.029155","addr": "臺北市大安區建國南路二段125號5樓(閱覽室(二)內之自修區後方之樑柱上)"},{"name": "總館","lng": "121.538369","lat": "25.029158","addr": "臺北市大安區建國南路二段125號6樓(閱覽室(三)內之自修區後方之樑柱上)"},{"name": "總館","lng": "121.538368","lat": "25.029158","addr": "臺北市大安區建國南路二段125號9樓(原住民資料區中央上方)"},{"name": "總館","lng": "121.538367","lat": "25.029158","addr": "臺北市大安區建國南路二段125號B1(兒童圖書區內指示牌前方造景樑柱上)"},{"name": "總館","lng": "121.538367","lat": "25.029154","addr": "臺北市大安區建國南路二段125號B2(服務檯後方之天花板上)"},{"name": "總館","lng": "121.538369","lat": "25.029152","addr": "臺北市大安區建國南路二段125號(8F資訊視聽走道造型橫木上)"},{"name": "大安分館","lng": "121.550788","lat": "25.016029","addr": "臺北市大安區辛亥路三段223號5樓(筆電區上方)"},{"name": "仁愛院區","lng": "121.545219","lat": "25.037513","addr": "臺北市大安區仁愛路四段10號(南棟大樓1樓(大門口中間【牙科】))"},{"name": "仁愛院區","lng": "121.544785","lat": "25.037421","addr": "臺北市大安區仁愛路四段10號1樓(5號批價櫃台裡上方)"},{"name": "仁愛院區","lng": "121.544783","lat": "25.037421","addr": "臺北市大安區仁愛路四段10號1樓(電梯往西側方向之急診室櫃台)"},{"name": "仁愛院區","lng": "121.544781","lat": "25.037421","addr": "臺北市大安區仁愛路四段10號1樓(復建科內實習學生室前上方)"},{"name": "仁愛院區","lng": "121.544789","lat": "25.037421","addr": "臺北市大安區仁愛路四段10號1樓(電梯靠近大門之電話亭前靠電梯天花板上方)"},{"name": "仁愛院區","lng": "121.544789","lat": "25.037422","addr": "臺北市大安區仁愛路四段10號2樓(手扶電梯上來柱子左側上方)"},{"name": "仁愛院區","lng": "121.544787","lat": "25.037425","addr": "臺北市大安區仁愛路四段10號2樓(雷射美容醫學門診前上方)"},{"name": "仁愛院區","lng": "121.544783","lat": "25.037425","addr": "臺北市大安區仁愛路四段10號2樓(胸腔內科16診前座位區上方)"},{"name": "仁愛院區","lng": "121.544787","lat": "25.037429","addr": "臺北市大安區仁愛路四段10號2樓(神經內科3診前座位區上方)"},{"name": "仁愛院區","lng": "121.545171","lat": "25.037323","addr": "臺北市大安區仁愛路四段10號2樓(電梯往東側之耳鼻喉科內座位區上方)"},{"name": "仁愛院區","lng": "121.545173","lat": "25.037323","addr": "臺北市大安區仁愛路四段10號2樓(電梯往東側之眼科候診內第一診療室門口前)"},{"name": "仁愛院區","lng": "121.545175","lat": "25.037323","addr": "臺北市大安區仁愛路四段10號2樓(外科2診前座位區中間上方)"},{"name": "仁愛院區","lng": "121.545177","lat": "25.037323","addr": "臺北市大安區仁愛路四段10號3樓(東側電梯右邊座位區上方)"},{"name": "仁愛院區","lng": "121.545179","lat": "25.037323","addr": "臺北市大安區仁愛路四段10號5樓(5西540病房前上方)"},{"name": "仁愛院區","lng": "121.545171","lat": "25.037325","addr": "臺北市大安區仁愛路四段10號5樓(往西側護理站櫃台前)"},{"name": "仁愛院區","lng": "121.545171","lat": "25.037327","addr": "臺北市大安區仁愛路四段10號6樓(護理站旁天花板)"},{"name": "仁愛院區","lng": "121.545171","lat": "25.037321","addr": "臺北市大安區仁愛路四段10號6樓(6東共同檢查室暨會談室前上方)"},{"name": "仁愛院區","lng": "121.545433","lat": "25.037371","addr": "臺北市大安區仁愛路四段10號6樓(往東側大門口進去之護理站前偏605病房上方)"},{"name": "仁愛院區","lng": "121.545431","lat": "25.037372","addr": "臺北市大安區仁愛路四段10號7樓(東側725病房前上方)"},{"name": "仁愛院區","lng": "121.545431","lat": "25.037375","addr": "臺北市大安區仁愛路四段10號7樓(往東側大門進入護理站前)"},{"name": "仁愛院區","lng": "121.545564","lat": "25.037222","addr": "臺北市大安區仁愛路四段10號8樓(往東側大門進入護理站前中間上方)"},{"name": "仁愛院區","lng": "121.545562","lat": "25.037222","addr": "臺北市大安區仁愛路四段10號9樓(東側913病房與e/c室間上方)"},{"name": "仁愛院區","lng": "121.545561","lat": "25.037222","addr": "臺北市大安區仁愛路四段10號9樓(往東側大門進入護理站左邊走廊之937病房)"},{"name": "仁愛院區","lng": "121.545564","lat": "25.037226","addr": "臺北市大安區仁愛路四段10號9樓(9西948病房前上方)"},{"name": "仁愛院區","lng": "121.545129","lat": "25.037207","addr": "臺北市大安區仁愛路四段10號4樓(420房門口上方天花板內)"},{"name": "仁愛院區","lng": "121.545224","lat": "25.037512","addr": "臺北市大安區仁愛路四段10號4樓(452房門口上方天花板內)"},{"name": "忠孝新生站(蘆洲線)","lng": "121.533311","lat": "25.042314","addr": "臺北市大安區新生南路一段67號(AP位置:三月台中前端兩樓梯中間靠月台上方)"},{"name": "忠孝新生站(蘆洲線)","lng": "121.533311","lat": "25.042313","addr": "臺北市大安區新生南路一段67號(AP位置:四月台中間座位區靠月台上方)"},{"name": "永康夜市","lng": "121.529595","lat": "25.030427","addr": "臺北市大安區永康街43號(OMNI，門市外側邊外牆)"},{"name": "大安地政事務所","lng": "121.556438","lat": "25.033828","addr": "臺北市大安區信義路四段335巷6號(入口左上方)"},{"name": "自來水事業處客服中心","lng": "121.547894","lat": "25.014249","addr": "臺北市大安區長興街131號1樓(服務台內鐵櫃旁)"},{"name": "第二殯儀館","lng": "121.5530397","lat": "25.013753","addr": "臺北市大安區辛亥路三段330號(2F咖啡吧檯內)"},{"name": "大安錦安區民活動中心","lng": "121.529601","lat": "25.028557","addr": "臺北市大安區永康街60號4樓(活動中心中央天花板)"},{"name": "大安錦安區民活動中心","lng": "121.527267","lat": "25.026943","addr": "臺北市大安區和平東路一段121號B2(門口進入教室中央天花板)"},{"name": "大安錦安二區民活動中心","lng": "121.529601","lat": "25.028558","addr": "臺北市大安區和平東路一段121號B2(門口進入左側房間中央天花板)"},{"name": "客委會-客家文化會館","lng": "121.543058","lat": "25.034527","addr": "臺北市大安區信義路三段157巷11號(4樓教室)"},{"name": "第二殯儀館","lng": "121.553031","lat": "25.013756","addr": "臺北市大安區辛亥路三段330號(火葬場內櫃檯旁天花板)"},{"name": "群英里社區關懷據點","lng": "121.545999","lat": "25.027335","addr": "臺北市大安區四維路198巷30弄4號(房間上方)"},{"name": "群英里社區關懷據點","lng": "121.546022","lat": "25.026522","addr": "臺北市大安區四維路198巷30弄8號(房間上方)"},{"name": "第二殯儀館(景仰樓)","lng": "121.553031","lat": "25.013756","addr": "臺北市大安區辛亥路三段330號1樓(聯合服務中心旁機櫃上方)"},{"name": "第二殯儀館(景仰樓)","lng": "121.553031","lat": "25.013756","addr": "臺北市大安區辛亥路三段330號1樓(第二廳電子輓聯上方)"},{"name": "第二殯儀館(景仰樓)","lng": "121.55303","lat": "25.013756","addr": "臺北市大安區辛亥路三段330號2樓(第五廳電子輓聯上方)"},{"name": "第二殯儀館(景仰樓)","lng": "121.553031","lat": "25.013756","addr": "臺北市大安區辛亥路三段330號3樓(第十聽電子輓聯上方)"},{"name": "博嘉區民活動中心","lng": "121.575449","lat": "24.99974","addr": "臺北市文山區木柵路四段157-1號1樓"},{"name": "成功市場","lng": "121.54766","lat": "25.026911","addr": "臺北市大安區四維路192巷(臨時棚攤A003攤位前)"},{"name": "成功市場","lng": "121.54735","lat": "25.027008","addr": "臺北市大安區四維路192巷(臨時棚攤104攤位前)"},{"name": "成功市場","lng": "121.5477","lat": "25.026943","addr": "臺北市大安區四維路192巷(臨時棚攤31攤位前)"},{"name": "大安光信區民活動中心","lng": "121.555021","lat": "25.036117","addr": "臺北市大安區延吉街236巷17號2樓"},{"name": "大安成功區民活動中心","lng": "121.546098","lat": "25.026305","addr": "臺北市大安區四維路198巷30弄9號(天花板上方)"},{"name": "大安辛亥區民活動中心","lng": "121.53171","lat": "25.021308","addr": "臺北市大安區辛亥路一段臨141號(進門樑柱上方)"},{"name": "大安青峰區民活動中心","lng": "121.550788","lat": "25.016023","addr": "臺北市大安區辛亥路三段223號3樓(舞台中央前五格天花板上)"},{"name": "大安建南區民活動中心","lng": "121.53923","lat": "25.029434","addr": "臺北市大安區信義路三段134巷82號2樓(門口左側第二個窗戶上)"},{"name": "大安通安區民活動中心","lng": "121.553083","lat": "25.029907","addr": "臺北市大安區通安街98號(中央天花板)"},{"name": "大安瑞安區民活動中心","lng": "121.541409","lat": "25.028037","addr": "臺北市大安區瑞安街71巷2號3樓(中央天花板上)"},{"name": "大同區行政中心","lng": "121.515117","lat": "25.06606","addr": "臺北市大同區昌吉街57號3樓(稅捐稽徵處第一、第二、第三股之等候區沙發正上方)"},{"name": "大同區行政中心","lng": "121.515115","lat": "25.06606","addr": "臺北市大同區昌吉街57號4樓(區公所內原住民櫃檯與調解委員會之間中心位置沙發上方)"},{"name": "蘭州民眾閱覽室","lng": "121.515113","lat": "25.06606","addr": "臺北市大同區昌吉街57號4樓(蘭州民眾閱覽室內進大門閱覽區第一根、第二根柱子之間中心位置)"},{"name": "建成分館","lng": "121.516824","lat": "25.057033","addr": "臺北市大同區民生西路198號4樓(多功能活動室旁天方板)"},{"name": "建成分館","lng": "121.516822","lat": "25.057033","addr": "臺北市大同區民生西路198號4樓(資訊檢索區上方)"},{"name": "建成分館","lng": "121.516828","lat": "25.057033","addr": "臺北市大同區民生西路198號4樓(筆電區上方)"},{"name": "延平分館","lng": "121.512092","lat": "25.059169","addr": "臺北市大同區保安街47號4樓(門口進入左邊算起第八盞燈上方偵煙器旁天花板)"},{"name": "延平分館","lng": "121.512094","lat": "25.059169","addr": "臺北市大同區保安街47號5樓(門口進入中間監視器往左數第6塊天花板)"},{"name": "延平分館","lng": "121.512092","lat": "25.059167","addr": "臺北市大同區保安街47號9樓(參考資料區牌子電燈與排風孔旁天花板)"},{"name": "大同分館","lng": "121.513557","lat": "25.074304","addr": "臺北市大同區重慶北路三段318號1樓(綜合閱覽室內聽障資料內上方)"},{"name": "大同分館","lng": "121.513553","lat": "25.074304","addr": "臺北市大同區重慶北路三段318號B1(筆電區上方天花板)"},{"name": "大同分館","lng": "121.513551","lat": "25.074304","addr": "臺北市大同區重慶北路三段318號B1(自修室直走至內側右後門和最後一根柱子中間位置)"},{"name": "大同分館","lng": "121.513559","lat": "25.074304","addr": "臺北市大同區重慶北路三段318號B1(樂齡學習中心中央天花板)"},{"name": "中興院區","lng": "121.509327","lat": "25.05097","addr": "臺北市大同區鄭州路145號10樓(10C護理站內辦公桌正上方)"},{"name": "中興院區","lng": "121.509321","lat": "25.05099","addr": "臺北市大同區鄭州路145號10樓(客梯外走道)"},{"name": "中興院區","lng": "121.508943","lat": "25.051672","addr": "臺北市大同區鄭州路145號1樓(門診藥局外走道上方)"},{"name": "中興院區","lng": "121.509164","lat": "25.051706","addr": "臺北市大同區鄭州路145號1樓(iscoffee門口上方)"},{"name": "中興院區","lng": "121.509168","lat": "25.051706","addr": "臺北市大同區鄭州路145號2樓(中醫科疼痛中心外走道上方)"},{"name": "中興院區","lng": "121.509402","lat": "25.051724","addr": "臺北市大同區鄭州路145號2樓(家庭醫學科體檢室前方)"},{"name": "中興院區","lng": "121.509521","lat": "25.051656","addr": "臺北市大同區鄭州路145號2樓(掛號批價處前方)"},{"name": "中興院區","lng": "121.509525","lat": "25.051656","addr": "臺北市大同區鄭州路145號2樓(精神科外走道會議室上方)"},{"name": "中興院區","lng": "121.509521","lat": "25.051658","addr": "臺北市大同區鄭州路145號3樓(復健科掛號室走道上方)"},{"name": "中興院區","lng": "121.509418","lat": "25.051527","addr": "臺北市大同區鄭州路145號3樓(圖書室門口上方)"},{"name": "中興院區","lng": "121.509414","lat": "25.051527","addr": "臺北市大同區鄭州路145號6樓(6A608病房門口上方)"},{"name": "中興院區","lng": "121.509645","lat": "25.051498","addr": "臺北市大同區鄭州路145號7樓(7C756病房門口上方)"},{"name": "中興院區","lng": "121.509645","lat": "25.051496","addr": "臺北市大同區鄭州路145號8樓(8B880病房門口上方)"},{"name": "中興院區","lng": "121.509356","lat": "25.051423","addr": "臺北市大同區鄭州路145號8樓(客梯外走道)"},{"name": "中興院區","lng": "121.509352","lat": "25.051423","addr": "臺北市大同區鄭州路145號9樓(9A病房區入口上方)"},{"name": "台北捷運大街(台北車站至雙連)","lng": "121.518094","lat": "25.048293","addr": "臺北市中山區長安西路52之1號(A2店鋪旁，電梯正前方第2塊天花板上)"},{"name": "台北捷運大街(台北車站至雙連)","lng": "121.518018","lat": "25.048369","addr": "臺北市中山區長安西路52之1號(台北車站M1出口與台北地下街Y2出口交界處)"},{"name": "台北捷運大街(台北車站至雙連)","lng": "121.520392","lat": "25.052609","addr": "臺北市中山區長安西路52之1號(中山地下街往捷運淡水線電扶梯前上方)"},{"name": "民權西路站(蘆洲線)","lng": "121.51948","lat": "25.062659","addr": "臺北市大同區民權西路72號(四月台，門號451前)"},{"name": "民權西路站(蘆洲線)","lng": "121.51946","lat": "25.062659","addr": "臺北市大同區民權西路72號(AP位置:詢問處層B252房間前上方)"},{"name": "民權西路站(蘆洲線)","lng": "121.51944","lat": "25.062659","addr": "臺北市大同區民權西路72號(三月台，門號353前)"},{"name": "臺北市立社會教育館-大稻埕戲苑","lng": "121.510535","lat": "25.054812","addr": "臺北市大同區迪化街一段21號8樓(服務台後方往廣場天花板)"},{"name": "衛生下水道工程處","lng": "121.510631","lat": "25.072468","addr": "臺北市大同區酒泉街235號(1F中庭電纜後面)"},{"name": "景安站","lng": "121.50495","lat": "24.994198","addr": "新北市中和區景安路142號"},{"name": "永樂市場","lng": "121.510532","lat": "25.054818","addr": "臺北市大同區迪化街一段21號(攤位編號:1025)"},{"name": "永樂市場","lng": "121.510531","lat": "25.054812","addr": "臺北市大同區迪化街一段21號(攤位編號:1018)"},{"name": "蘭州市場","lng": "121.515635","lat": "25.066047","addr": "臺北市大同區昌吉街55號1樓(60號攤販走道)"},{"name": "蘭州市場","lng": "121.515537","lat": "25.066083","addr": "臺北市大同區昌吉街55號1樓(105號攤販走道上方)"},{"name": "蘭州市場","lng": "121.515633","lat": "25.066154","addr": "臺北市大同區昌吉街55號1樓(139攤販走道上方)"},{"name": "蘭州市場","lng": "121.515438","lat": "25.066123","addr": "臺北市大同區昌吉街55號1樓(115號攤販走道上方)"},{"name": "蘭州市場","lng": "121.515381","lat": "25.066172","addr": "臺北市大同區昌吉街55號1樓(191號攤販走道上)"},{"name": "大同玉泉區民活動中心","lng": "121.508582","lat": "25.057513","addr": "臺北市大同區環河北路一段96號2樓(中央天花板)"},{"name": "大同延平區民活動中心","lng": "121.512054","lat": "25.059224","addr": "臺北市大同區保安街47之1號3樓(天花板上)"},{"name": "大同臺北橋區民活動中心","lng": "121.509291","lat": "25.063104","addr": "臺北市大同區迪化街一段374號2樓(門口右側通風排管上方)"},{"name": "大同慶昌區民活動中心","lng": "121.51169","lat": "25.076599","addr": "臺北市大同區敦煌路151-1號(逃生號誌旁)"},{"name": "大同雙連區民活動中心","lng": "121.520012","lat": "25.058616","addr": "臺北市大同區萬全街42號1樓(教室內左側天花板上)"},{"name": "大同保生區民活動中心","lng": "121.514877","lat": "25.074123","addr": "臺北市大同區重慶北路三段313巷25號1樓(通道上方天花板)"},{"name": "大同國慶區民活動中心","lng": "121.51346","lat": "25.066126","addr": "臺北市大同區重慶北路三段76號4樓(中央天花板上)"},{"name": "三民高中站","lng": "121.472992","lat": "25.085597","addr": "新北市蘆洲區三民路105號B1(AP位置:詢問處右前上方)"},{"name": "三民高中站","lng": "121.472994","lat": "25.085597","addr": "新北市蘆洲區三民路105號B1(AP位置:一月台前端座位區上方)"},{"name": "三民高中站","lng": "121.472994","lat": "25.085595","addr": "新北市蘆洲區三民路105號B1(AP位置:二月台前端電扶梯與告示牌中間上方)"},{"name": "蘆洲站","lng": "121.4644","lat": "25.09154","addr": "新北市蘆洲區三民路386號B1(AP位置:詢問處層販賣站右前上方)"},{"name": "蘆洲站","lng": "121.4653","lat": "25.09118","addr": "新北市蘆洲區三民路386號B1(AP位置:一月台前端座位區上方)"},{"name": "蘆洲站","lng": "121.4649","lat": "25.09139","addr": "新北市蘆洲區三民路386號B1(AP位置:二月台後端座位區上方)"},{"name": "徐匯中學站","lng": "121.479925","lat": "25.08035","addr": "新北市蘆洲區中山一路3號B1(AP位置:非付費區上網桌前)"},{"name": "徐匯中學站","lng": "121.479923","lat": "25.08035","addr": "新北市蘆洲區中山一路3號B1(二月台門號234前)"},{"name": "徐匯中學站","lng": "121.479921","lat": "25.08035","addr": "新北市蘆洲區中山一路3號B1(二月台門號262前)"},{"name": "南港區行政中心","lng": "121.606785","lat": "25.054514","addr": "臺北市南港區南港路一段360號2樓(警衛櫃檯前上方天花板)"},{"name": "龍華民眾閱覽室","lng": "121.587729","lat": "25.045021","addr": "臺北市南港區東新街63巷8號(信義樓2F筆電區走道)"},{"name": "南港分館","lng": "121.607951","lat": "25.053795","addr": "臺北市南港區南港路一段287巷4弄10號2樓(門口進入上方兩盞電燈中間天花板)"},{"name": "南港分館","lng": "121.607955","lat": "25.053795","addr": "臺北市南港區南港路一段287巷4弄10號3樓(9號書櫃及10號書櫃中間天花板)"},{"name": "南港分館","lng": "121.607957","lat": "25.053795","addr": "臺北市南港區南港路一段287巷4弄10號B1(自修室中間柱子緊急照明燈旁天花板)"},{"name": "舊莊分館","lng": "121.619438","lat": "25.041328","addr": "臺北市南港區舊莊街一段91巷11號2樓綜合服務台"},{"name": "舊莊分館","lng": "121.619436","lat": "25.041328","addr": "臺北市南港區舊莊街一段91巷11號3樓外文圖書區"},{"name": "舊莊分館","lng": "121.619434","lat": "25.041328","addr": "臺北市南港區舊莊街一段91巷11號4樓(視聽資料區)"},{"name": "舊莊分館","lng": "121.619438","lat": "25.041326","addr": "臺北市南港區舊莊街一段91巷11號5樓(自修室)"},{"name": "龍華民眾閱覽室","lng": "121.587003","lat": "25.047591","addr": "臺北市南港區東新街63巷8號(1樓服務台前方天花板)"},{"name": "龍華民眾閱覽室","lng": "121.586987","lat": "25.047586","addr": "臺北市南港區東新街63巷8號(B1自修室)"},{"name": "忠孝院區","lng": "121.586075","lat": "25.046531","addr": "臺北市南港區同德路87號10樓(1003號病房旁上方)"},{"name": "忠孝院區","lng": "121.586075","lat": "25.046539","addr": "臺北市南港區同德路87號1樓(放射線診斷科登記處前上方)"},{"name": "忠孝院區","lng": "121.585863","lat": "25.046567","addr": "臺北市南港區同德路87號5樓(526號病房前上方)"},{"name": "忠孝院區","lng": "121.585861","lat": "25.046567","addr": "臺北市南港區同德路87號2樓(新陳代謝科門口前上方)"},{"name": "忠孝院區","lng": "121.585869","lat": "25.046567","addr": "臺北市南港區同德路87號2樓(皮膚科候診區上方)"},{"name": "忠孝院區","lng": "121.585863","lat": "25.046569","addr": "臺北市南港區同德路87號2樓(耳鼻喉科候診區中心位置)"},{"name": "忠孝院區","lng": "121.585863","lat": "25.046565","addr": "臺北市南港區同德路87號2樓(批價及掛號櫃檯之中心位置)"},{"name": "忠孝院區","lng": "121.585863","lat": "25.046563","addr": "臺北市南港區同德路87號2樓(小兒科門診門口上方)"},{"name": "忠孝院區","lng": "121.586298","lat": "25.046708","addr": "臺北市南港區同德路87號1樓(心電圖室前方座位區上方)"},{"name": "忠孝院區","lng": "121.586457","lat": "25.046546","addr": "臺北市南港區同德路87號9樓(內科辦公室間休憩區之中心位置)"},{"name": "忠孝院區","lng": "121.585892","lat": "25.046382","addr": "臺北市南港區同德路87號B1(中醫科候診區大圓柱天花板上)"},{"name": "南港分處","lng": "121.606781","lat": "25.054514","addr": "臺北市南港區南港路一段360號3樓(大門左側電腦區正上方天花板)"},{"name": "成德市場","lng": "121.586782","lat": "25.046123","addr": "臺北市南港區同德路100號(75攤位前)"},{"name": "南港九如區民活動中心","lng": "121.614332","lat": "25.035242","addr": "臺北市南港區研究院路三段68巷9號2樓"},{"name": "南港三重區民活動中心","lng": "121.613082","lat": "25.055596","addr": "臺北市南港區興東街1號2樓(冷氣機上面)"},{"name": "南港中研區民活動中心","lng": "121.614487","lat": "25.045417","addr": "臺北市南港區研究院路二段70巷12號2樓"},{"name": "南港仁福區民活動中心","lng": "121.590631","lat": "25.040003","addr": "臺北市南港區區福德街443號1樓(里長辦公室門口右邊牆上)"},{"name": "景安站","lng": "121.50488","lat": "24.99416","addr": "新北市中和區景安路142號"},{"name": "南港成德區民活動中心","lng": "121.586711","lat": "25.045949","addr": "臺北市南港區同德路100號3樓"},{"name": "南港西新區民活動中心","lng": "121.592731","lat": "25.05786","addr": "臺北市南港區成功路一段99號(中央天花板)"},{"name": "南港東新區民活動中心","lng": "121.600061","lat": "25.054538","addr": "臺北市南港區東明街99號(中央天花板)"},{"name": "南港舊莊區民活動中心","lng": "121.619438","lat": "25.041324","addr": "臺北市南港區南港區舊莊街一段91巷11號(中央天花板)"},{"name": "南港南港區民活動中心","lng": "121.60796","lat": "25.053732","addr": "臺北市南港區市民大道八段367號2樓(入口左方櫃子上)"},{"name": "內湖分館","lng": "121.589099","lat": "25.069233","addr": "臺北市內湖區民權東路六段99號6樓(自修室進門上方透明天花板右邊)"},{"name": "內湖分館","lng": "121.589099","lat": "25.069237","addr": "臺北市內湖區民權東路六段99號6樓(期刊室進門上方透明天花板後一塊)"},{"name": "東湖分館","lng": "121.61261","lat": "25.067415","addr": "臺北市內湖區五分街6號1樓(服務臺後方櫃子)"},{"name": "東湖分館","lng": "121.61263","lat": "25.067415","addr": "臺北市內湖區五分街6號2樓(兒童期刊區牌子旁牆壁上)"},{"name": "東湖分館","lng": "121.61265","lat": "25.067415","addr": "臺北市內湖區五分街6號3樓(圖書室進入左轉第一支柱子上方)"},{"name": "西湖分館","lng": "121.577459","lat": "25.078962","addr": "臺北市內湖區內湖路一段594號1樓(期刊合訂本區牌子旁天花板)"},{"name": "西湖分館","lng": "121.577457","lat": "25.078962","addr": "臺北市內湖區內湖路一段594號2樓(宗教類與語文類架子中間天花板)"},{"name": "西湖分館","lng": "121.577455","lat": "25.078962","addr": "臺北市內湖區內湖路一段594號3樓(視聽資料閱覽區牌孑旁天花板)"},{"name": "西湖分館","lng": "121.577451","lat": "25.078962","addr": "臺北市內湖區內湖路一段594號B1(進入第5支柱子橫梁右側內牆上)"},{"name": "西中分館","lng": "121.562203","lat": "25.083662","addr": "臺北市內湖區內湖路一段285巷66號(1樓自修室上方)"},{"name": "西中分館","lng": "121.562201","lat": "25.083662","addr": "臺北市內湖區內湖路一段285巷66號(2樓報紙閱覽區上方)"},{"name": "士林分館","lng": "121.522253","lat": "25.096276","addr": "臺北市士林區華聲街17號3樓(筆電區上方)"},{"name": "養護隊第二分隊","lng": "121.577506","lat": "25.066178","addr": "臺北市內湖區民權東路六段臨8-1號(新工處二分隊右側辦公室，消防警報器上方)"},{"name": "內湖分處","lng": "121.589097","lat": "25.069232","addr": "臺北市內湖區民權東路六段99號2樓(辦公桌上方)"},{"name": "西湖市場","lng": "121.566584","lat": "25.082551","addr": "臺北市內湖區內湖路一段283號(2F煲仔肉飯前(67攤位))"},{"name": "西湖市場","lng": "121.566586","lat": "25.082551","addr": "臺北市內湖區內湖路一段283號(2F嘉義魯肉飯(69攤位))"},{"name": "捷運站文德轉乘停車場","lng": "121.58486","lat": "25.078378","addr": "臺北市內湖區文德路216號(面對1F停車場控制室左側)"},{"name": "內湖清白區民活動中心","lng": "121.596101","lat": "25.081149","addr": "臺北市內湖區星雲街161巷3號1樓(活動中心內天花板上)"},{"name": "內湖行善區民活動中心","lng": "121.576167","lat": "25.056124","addr": "臺北市內湖區行善路25巷13號2樓"},{"name": "內湖金龍區民活動中心","lng": "121.590039","lat": "25.08575","addr": "臺北市內湖區金龍路136-1號2樓"},{"name": "內湖港墘區民活動中心","lng": "121.577266","lat": "25.079187","addr": "臺北市內湖區內湖路一段552號(天花板上)"},{"name": "內湖湖興區民活動中心","lng": "121.589995","lat": "25.067663","addr": "臺北市內湖區成功路二段320巷19號3樓"},{"name": "內湖紫星區民活動中心","lng": "121.591484","lat": "25.080457","addr": "臺北市內湖區康寧路一段20號"},{"name": "內湖週美區民活動中心","lng": "121.581645","lat": "25.055262","addr": "臺北市內湖區新明路324號3樓(冷氣上方)"},{"name": "內湖五分區民活動中心","lng": "121.61261","lat": "25.067414","addr": "臺北市內湖區五分街6號5樓(中央天花板)"},{"name": "內湖西湖區民活動中心","lng": "121.567218","lat": "25.082139","addr": "臺北市內湖區內湖路一段285號7樓(中央天花板上)"},{"name": "內湖港華區民活動中心","lng": "121.57507","lat": "25.086724","addr": "臺北市內湖區環山路二段68巷14號1、2樓(左側電風扇上方)"},{"name": "內湖陽光區民活動中心","lng": "121.581093","lat": "25.077403","addr": "臺北市內湖區文德路66巷38弄14號(中央天花板上)"},{"name": "內湖碧山區民活動中心","lng": "121.592065","lat": "25.086551","addr": "臺北市內湖區內湖路三段60巷6-8號地下室(中央天花板上)"},{"name": "內湖樂康區民活動中心","lng": "121.619185","lat": "25.072435","addr": "臺北市內湖區康樂街150號6樓之1(舞台後方音響下)"},{"name": "三重國小站","lng": "121.496906","lat": "25.070319","addr": "新北市三重區三和路三段5號B(AP位置:詢問處左前方電梯前上方)"},{"name": "三重國小站","lng": "121.496908","lat": "25.070319","addr": "新北市三重區三和路三段5號B(AP位置:二月台233號前中間座位區上方)"},{"name": "三重國小站","lng": "121.496902","lat": "25.070319","addr": "新北市三重區三和路三段5號B(AP位置:一月台123門前)"},{"name": "三和國中站","lng": "121.486345","lat": "25.076859","addr": "新北市三重區三和路四段107號B1(AP位置:非付費區上網桌前)"},{"name": "三和國中站","lng": "121.486344","lat": "25.076853","addr": "新北市三重區三和路四段107號B1(AP位置:二月台後端樓梯前與告示板中間上方)"},{"name": "菜寮站","lng": "121.492162","lat": "25.060271","addr": "新北市三重區重新路三段150號B1(AP位置:詢問處右前上方)"},{"name": "菜寮站","lng": "121.492164","lat": "25.060271","addr": "新北市三重區重新路三段150號B1(AP位置:一月台前端電扶梯右前上方)"},{"name": "菜寮站","lng": "121.492166","lat": "25.060271","addr": "新北市三重區重新路三段150號B1(AP位置:二月台前端電扶梯右前上方)"},{"name": "先嗇宮站","lng": "121.47125","lat": "25.04658","addr": "新北市三重區重新路五段515號B1(AP位置:一月台前端告示牌前上方)"},{"name": "三重站","lng": "121.484848","lat": "25.055889","addr": "新北市三重區捷運路36號B1(AP位置:一月台前端靠月台門上方)"},{"name": "三重站","lng": "121.484842","lat": "25.055889","addr": "新北市三重區捷運路36號B1(AP位置:二月台前端電扶梯前上方)"},{"name": "三重站","lng": "121.484841","lat": "25.055889","addr": "新北市三重區捷運路36號B1(AP位置:副詢問處前靠出口AP)"},{"name": "台北橋站","lng": "121.500932","lat": "25.063048","addr": "新北市三重區重新路一段108號B1(AP位置:詢問處前方驗票閘門上方)"},{"name": "台北橋站","lng": "121.500936","lat": "25.063048","addr": "新北市三重區重新路一段108號B1(AP位置:二月台前端上方))"},{"name": "士林區健康服務中心","lng": "121.519559","lat": "25.092762","addr": "臺北市士林區中正路439號1樓(面對門診(一)左側天花板)"},{"name": "士林區行政中心","lng": "121.519557","lat": "25.092762","addr": "臺北市士林區中正路439號3樓(第24號櫃台前天花板上)"},{"name": "士林區行政中心","lng": "121.519555","lat": "25.092762","addr": "臺北市士林區中正路439號3樓(進門口處，第三塊天花板上)"},{"name": "士林區行政中心","lng": "121.519691","lat": "25.092746","addr": "臺北市士林區中正路439號4樓(進門口處第五塊天花板上)"},{"name": "士林區行政中心","lng": "121.519693","lat": "25.092746","addr": "臺北市士林區中正路439號5樓(健康測量區前方監視器旁天花板上)"},{"name": "士林區行政中心","lng": "121.519695","lat": "25.092746","addr": "臺北市士林區中正路439號5樓(進門口處第二塊天花板上)"},{"name": "士林區行政中心","lng": "121.519697","lat": "25.092746","addr": "臺北市士林區中正路439號6樓(測量諮詢櫃台前日光燈組內)"},{"name": "士林區行政中心","lng": "121.519698","lat": "25.092746","addr": "臺北市士林區中正路439號7樓(行政課門口天花板上)"},{"name": "士林區行政中心","lng": "121.519817","lat": "25.092806","addr": "臺北市士林區中正路439號8樓(進門走道第四塊天花板上)"},{"name": "士林區行政中心","lng": "121.519815","lat": "25.092806","addr": "臺北市士林區中正路439號9樓(人文課右方柱子前第四塊天花板)"},{"name": "士林區行政中心","lng": "121.519813","lat": "25.092806","addr": "臺北市士林區中正路439號9樓(第3號、4號兵役課櫃台前天花板上)"},{"name": "天母分館","lng": "121.532946","lat": "25.123421","addr": "臺北市士林區中山北路七段154巷6號3樓(筆電區中央後方書架上方)"},{"name": "天母分館","lng": "121.532948","lat": "25.123421","addr": "臺北市士林區中山北路七段154巷6號4樓(自修區7號桌上方)"},{"name": "葫蘆堵分館","lng": "121.510873","lat": "25.082193","addr": "臺北市士林區延平北路五段136巷1號4樓(門口進入第2支柱子往右數第6塊天花板)"},{"name": "葫蘆堵分館","lng": "121.510875","lat": "25.082193","addr": "臺北市士林區延平北路五段136巷1號5樓(服務台與樓梯中間天花板)"},{"name": "士林分館","lng": "121.522253","lat": "25.096278","addr": "臺北市士林區華聲街17號3樓(自修室上方)"},{"name": "士林分館","lng": "121.522253","lat": "25.096274","addr": "臺北市士林區華聲街17號3樓(資訊檢索區旁的休息室天花板上方)"},{"name": "李科永分館","lng": "121.517371","lat": "25.090853","addr": "臺北市士林區中正路15號(1F閱覽室天花板)"},{"name": "李科永分館","lng": "121.517373","lat": "25.090853","addr": "臺北市士林區中正路15號(B1兒童閱覽室內天花板)"},{"name": "李科永分館","lng": "121.517375","lat": "25.090853","addr": "臺北市士林區中正路15號(B1自修室天花板)"},{"name": "李科永分館","lng": "121.517377","lat": "25.090853","addr": "臺北市士林區中正路15號(B2參考文獻區天花板)"},{"name": "百齡智慧圖書館","lng": "121.51785","lat": "25.086207","addr": "臺北市士林區福港街205號(1F圖書館門口外天花板上)"},{"name": "陽明院區","lng": "121.531807","lat": "25.105237","addr": "臺北市士林區雨聲街105號醫療1樓(電腦斷層掃描報告室前上方)"},{"name": "陽明院區","lng": "121.531881","lat": "25.105422","addr": "臺北市士林區雨聲街105號醫療1樓(放射科檢查室走道之中心位置)"},{"name": "陽明院區","lng": "121.531782","lat": "25.105449","addr": "臺北市士林區雨聲街105號醫療1樓(急診室志工服務臺前上方)"},{"name": "陽明院區","lng": "121.531648","lat": "25.105497","addr": "臺北市士林區雨聲街105號醫療1樓(大門口進去後上方)"},{"name": "陽明院區","lng": "121.531719","lat": "25.105492","addr": "臺北市士林區雨聲街105號醫療1樓(2號批價櫃台前上方)"},{"name": "陽明院區","lng": "121.531887","lat": "25.105252","addr": "臺北市士林區雨聲街105號醫療2樓(電梯等候區之上方位置)"},{"name": "陽明院區","lng": "121.532012","lat": "25.105393","addr": "臺北市士林區雨聲街105號醫療2樓(耳鼻喉科候診區上方)"},{"name": "陽明院區","lng": "121.532056","lat": "25.105185","addr": "臺北市士林區雨聲街105號醫療2樓(美容醫學中心前電視上方)"},{"name": "陽明院區","lng": "121.531831","lat": "25.105099","addr": "臺北市士林區雨聲街105號醫療2樓(牙科門診等候區上方)"},{"name": "陽明院區","lng": "121.531641","lat": "25.105011","addr": "臺北市士林區雨聲街105號醫療2樓(中醫53診室外)"},{"name": "陽明院區","lng": "121.531688","lat": "25.104987","addr": "臺北市士林區雨聲街105號醫療3樓(麻醉恢復室外上方)"},{"name": "陽明院區","lng": "121.531414","lat": "25.104843","addr": "臺北市士林區雨聲街105號醫療5樓(A區產科病房走道，臨A510、507病房門口)"},{"name": "陽明院區","lng": "121.531454","lat": "25.104832","addr": "臺北市士林區雨聲街105號醫療5樓(A區產科病房走道，臨A517、513病房門口)"},{"name": "陽明院區","lng": "121.531709","lat": "25.104859","addr": "臺北市士林區雨聲街105號醫療5樓(C區資訊室門口前方與電梯等候區中心位置)"},{"name": "陽明院區","lng": "121.531756","lat": "25.104933","addr": "臺北市士林區雨聲街105號醫療6樓(A區6A護理站前方走道，A620病房門口)"},{"name": "陽明院區","lng": "121.531765","lat": "25.104971","addr": "臺北市士林區雨聲街105號醫療6樓(A區骨科病房走道，臨A608、A611病房門口)"},{"name": "陽明院區","lng": "121.531807","lat": "25.105045","addr": "臺北市士林區雨聲街105號醫療6樓(A區骨科病房走道，臨A615、A618病房門口)"},{"name": "陽明院區","lng": "121.532043","lat": "25.105051","addr": "臺北市士林區雨聲街105號醫療7樓(A區護理站左側走道末端上方，臨A718、A715病房門口)"},{"name": "陽明院區","lng": "121.532171","lat": "25.104991","addr": "臺北市士林區雨聲街105號醫療7樓(C區護理站前方走道上方位置，臨C755病房門口)"},{"name": "陽明院區","lng": "121.532047","lat": "25.105039","addr": "臺北市士林區雨聲街105號醫療8樓(A區護理站前方走道上方位置，臨A821、A802病房門口)"},{"name": "陽明院區","lng": "121.532236","lat": "25.105045","addr": "臺北市士林區雨聲街105號醫療8樓(C區護理站前方走道上方位置，臨C853病房)"},{"name": "陽明院區","lng": "121.532276","lat": "25.105091","addr": "臺北市士林區雨聲街105號醫療9樓(大禮堂內中心位置，臨投影機)"},{"name": "陽明院區","lng": "121.532311","lat": "25.105018","addr": "臺北市士林區雨聲街105號醫療9樓(C區護理站前方走道上方位置，臨C953肝炎帶原者室)"},{"name": "陽明院區","lng": "121.532126","lat": "25.105002","addr": "臺北市士林區雨聲街105號醫療9樓(病床專用電梯右側休息區上方)"},{"name": "士林夜市","lng": "121.524107","lat": "25.087867","addr": "臺北市士林區基河路101號B1美食街(34號攤位前走道天花板)"},{"name": "士林夜市","lng": "121.524109","lat": "25.087867","addr": "臺北市士林區基河路101號B1美食街(20號攤位左側走道天花板)"},{"name": "兒童新樂園","lng": "121.514099","lat": "25.097183","addr": "臺北市士林區承德路五段55號(1F遊客服務中心內)"},{"name": "兒童新樂園","lng": "121.514362","lat": "25.097256","addr": "臺北市士林區承德路五段55號(2F園區資訊站前方)"},{"name": "兒童新樂園","lng": "121.514462","lat": "25.097227","addr": "臺北市士林區承德路五段55號(2F餐廳座位區內)"},{"name": "士林稅捐處","lng": "121.522821","lat": "25.097068","addr": "臺北市士林區美崙街41號(2F左側辦公區中間走道天花板上)"},{"name": "天文科學教育館","lng": "121.518297","lat": "25.095829","addr": "臺北市士林區基河路363號(1樓服務台右側上方)"},{"name": "天文科學教育館","lng": "121.518295","lat": "25.095829","addr": "臺北市士林區基河路363號(1樓服務台左側上方)"},{"name": "天文科學教育館","lng": "121.518291","lat": "25.095829","addr": "臺北市士林區基河路363號(2F用餐區天花板上方)"},{"name": "至善老人養護中心","lng": "121.543182","lat": "25.101946","addr": "臺北市士林區仰德大道二段2巷50號(服務台)"},{"name": "臺北市婦女館","lng": "121.501346","lat": "25.033461","addr": "臺北市萬華區艋舺大道101號3樓(服務台旁座位區上方)"},{"name": "臺北市婦女館","lng": "121.501272","lat": "25.033446","addr": "臺北市萬華區艋舺大道101號3樓(教室門口上方)"},{"name": "捷運芝山站轉乘停車場","lng": "121.523216","lat": "25.101282","addr": "臺北市士林區福華路22號前停車場(收費票亭牆上冷氣左側)"},{"name": "捷運芝山站轉乘停車場","lng": "121.5224","lat": "25.1038","addr": "臺北市士林區福國路70號(收費票亭牆上冷氣右側)"},{"name": "士林仰德區民活動中心","lng": "121.521983","lat": "25.104658","addr": "臺北市士林區德行西路30號(辦公室左側牆上)"},{"name": "士林芝山岩區民活動中心","lng": "121.528598","lat": "25.103448","addr": "臺北市士林區雨聲街68號(天花板上)"},{"name": "士林葫蘆堵區民活動中心","lng": "121.510873","lat": "25.082195","addr": "臺北市士林區延平北路五段136巷1號"},{"name": "士林福中區民活動中心","lng": "121.517957","lat": "25.08728","addr": "臺北市士林區福港街151號9樓閱覽室(天花板上)"},{"name": "士林福佳區民活動中心","lng": "121.517473","lat": "25.097155","addr": "臺北市士林區美崙街190號(進門左邊天花板上)"},{"name": "臺北小巨蛋","lng": "121.550201","lat": "25.050659","addr": "臺北市松山區南京東路四段2號2樓(冰宮溜冰場入口吸頂)"},{"name": "士林福林區民活動中心","lng": "121.527387","lat": "25.094702","addr": "臺北市士林區中正路187巷26-1號(中央天花板上)"},{"name": "士林福安區民活動中心","lng": "121.494464","lat": "25.097353","addr": "臺北市士林區延平北路七段114號2樓(中央天花板)"},{"name": "士林中洲區民活動中心","lng": "121.474814","lat": "25.106337","addr": "臺北市士林區延平北路九段80號1樓(中央天花板)"},{"name": "松山區行政中心","lng": "121.577245","lat": "25.049843","addr": "臺北市松山區八德路四段692號1樓(聯合醫院松山門診部掛號室與物理治療室門口之中心位置)"},{"name": "松山分館","lng": "121.576847","lat": "25.049834","addr": "臺北市松山區八德路四段688號5樓(自修室中間天花板上)"},{"name": "松山分館","lng": "121.576845","lat": "25.049834","addr": "臺北市松山區八德路四段688號6樓(兩間期刊室中間天花板上)"},{"name": "松山分館","lng": "121.576843","lat": "25.049834","addr": "臺北市松山區八德路四段688號7樓(服務台前方3米處天花板上)"},{"name": "三民分館","lng": "121.562837","lat": "25.059274","addr": "臺北市松山區民生東路五段163-1號5樓(閱覽室中心位置上方)"},{"name": "三民分館","lng": "121.562835","lat": "25.059274","addr": "臺北市松山區民生東路五段163-1號6樓(自修室中心位置上方)"},{"name": "中崙分館","lng": "121.545896","lat": "25.048378","addr": "臺北市松山區長安東路二段229號10樓(參考資料區)"},{"name": "中崙分館","lng": "121.545898","lat": "25.048378","addr": "臺北市松山區長安東路二段229號8樓(兒童閱覽區)"},{"name": "中崙分館","lng": "121.545896","lat": "25.048372","addr": "臺北市松山區長安東路二段229號9樓(漫畫參考資料區)"},{"name": "三民分館","lng": "121.562833","lat": "25.059274","addr": "臺北市松山區民生東路五段163-1號6樓(閱覽區中央)"},{"name": "松山機場智慧圖書館","lng": "121.549642","lat": "25.063721","addr": "臺北市松山區敦化北路338號(捷運松山機場站3號入口B1連通道)"},{"name": "饒河街夜市","lng": "121.577661","lat": "25.050094","addr": "臺北市松山區八德路四段769號(騎樓吸頂)"},{"name": "臺北小巨蛋","lng": "121.550625","lat": "25.050625","addr": "臺北市松山區南京東路四段2號2樓(冰宮溜冰場內貓道正中央)"},{"name": "臺北市立社會教育館","lng": "121.552277","lat": "25.048464","addr": "臺北市松山區八德路三段25號(1F閱讀區上方)"},{"name": "臺北市立社會教育館-城市舞台","lng": "121.551382","lat": "25.048421","addr": "臺北市松山區八德路三段25號(B1城市舞台後面樓梯口上方)"},{"name": "臺北市立社會教育館-城市舞台","lng": "121.551505","lat": "25.048429","addr": "臺北市松山區八德路三段25號(B1舞台服務台前上方)"},{"name": "臺北體育館","lng": "121.552094","lat": "25.051292","addr": "臺北市松山區南京東路四段10號(櫃檯旁左側)"},{"name": "松山老人服務中心","lng": "121.562861","lat": "25.059325","addr": "臺北市松山區民生東路五段163-1號9樓(教室內天花板上)"},{"name": "松山三民區民活動中心","lng": "121.562831","lat": "25.059274","addr": "臺北市松山區民生東路五段163-1號8樓(天花板上)"},{"name": "松山民有區民活動中心","lng": "121.5471","lat": "25.060364","addr": "臺北市松山區民權東路三段140巷15號5樓(閱覽室外逃生梯旁天花板)"},{"name": "松山安平區民活動中心","lng": "121.565586","lat": "25.053451","addr": "臺北市松山區南京東路五段291巷44弄23號之1(天花板上)"},{"name": "松山復建區民活動中心","lng": "121.555756","lat": "25.047734","addr": "臺北市松山區八德路三段158巷7弄20號(天花板上)"},{"name": "松山復盛區民活動中心","lng": "121.561338","lat": "25.047741","addr": "臺北市松山區市民大道五段99號(天花板上)"},{"name": "松山敦化區民活動中心","lng": "121.55038","lat": "25.046309","addr": "臺北市松山區八德路三段12巷52弄2之1號(下樓梯後左側牆壁上)"},{"name": "松山新聚區民活動中心","lng": "121.569439","lat": "25.051131","addr": "臺北市松山區南京東路五段374號(天花板上)"},{"name": "松山鵬程區民活動中心","lng": "121.568808","lat": "25.054639","addr": "臺北市松山區健康路399號3樓(天花板上)"},{"name": "松山中正區民活動中心","lng": "121.545896","lat": "25.048374","addr": "臺北市松山區長安東路2段229號11樓(中央天花板上)"},{"name": "松山自強區民活動中心","lng": "121.563625","lat": "25.05558","addr": "臺北市松山區三民路35巷9號(大門旁上方天花板)"},{"name": "昆明院區","lng": "121.50494","lat": "25.044324","addr": "臺北市萬華區昆明街100號2樓(28診門口上方)"},{"name": "松山松基區民活動中心","lng": "121.546327","lat": "25.054457","addr": "臺北市松山區長春路339巷2號地下1樓(大禮堂內機櫃上方)"},{"name": "松山龍田區民活動中心","lng": "121.558","lat": "25.049513","addr": "臺北市松山區光復北路230巷21號地下1樓(大門左方天花板上)"},{"name": "捷運永寧站轉乘停車場","lng": "121.4358","lat": "24.96609","addr": "新北市土城區中央路三段105號1F(收費票亭牆上)"},{"name": "萬華區行政中心","lng": "121.499886","lat": "25.035002","addr": "臺北市萬華區和平西路三段120號11樓(進門右邊上方排風孔之斜角天花板)"},{"name": "萬華區行政中心","lng": "121.499888","lat": "25.035003","addr": "臺北市萬華區和平西路三段120號6樓(進門上方第2個出風孔旁)"},{"name": "萬華區行政中心","lng": "121.499888","lat": "25.035005","addr": "臺北市萬華區和平西路三段120號8樓(領件櫃檯7號靠近門口進去第一個柱子攝影機上方天花板)"},{"name": "萬華區行政中心","lng": "121.499951","lat": "25.03497","addr": "臺北市萬華區和平西路三段120號(B2停車管理室)"},{"name": "萬華區行政中心","lng": "121.49983","lat": "25.034971","addr": "臺北市萬華區和平西路三段120號(1樓服務台)"},{"name": "東園分館","lng": "121.498138","lat": "25.022661","addr": "臺北市萬華區東園街199號1樓(1樓落地窗旁柱上)"},{"name": "東園分館","lng": "121.498111","lat": "25.022663","addr": "臺北市萬華區東園街199號2樓(一般圖書區旁天花板上)"},{"name": "東園分館","lng": "121.498112","lat": "25.022663","addr": "臺北市萬華區東園街199號3樓(一般圖書館區的入口上方電扇旁)"},{"name": "東園分館","lng": "121.498111","lat": "25.022662","addr": "臺北市萬華區東園街199號4樓(自修室天花板上)"},{"name": "萬華分館","lng": "121.495703","lat": "25.027922","addr": "臺北市萬華區東園街19號5樓(報紙區天花板上)"},{"name": "萬華分館","lng": "121.495707","lat": "25.027922","addr": "臺北市萬華區東園街19號6樓(圖書展示區招牌前及服務台前天花板上)"},{"name": "西園分館","lng": "121.50173","lat": "25.032201","addr": "臺北市萬華區興寧街6號3樓(自修室正中央天花板上)"},{"name": "昆明院區","lng": "121.50492","lat": "25.044324","addr": "臺北市萬華區昆明街100號1樓(中婦科內診外)"},{"name": "昆明院區","lng": "121.50496","lat": "25.044324","addr": "臺北市萬華區昆明街100號2樓(25診門口上方)"},{"name": "昆明院區","lng": "121.50493","lat": "25.044322","addr": "臺北市萬華區昆明街100號6樓(營業衛生股外上方)"},{"name": "華西街夜市","lng": "121.4984","lat": "25.03846","addr": "臺北市萬華區華西街夜市106攤位上方"},{"name": "青年公園太陽圖書館暨節能展示館","lng": "121.503738","lat": "25.024936","addr": "臺北市萬華區青年路65號1樓(閱覽檯上方)"},{"name": "","lng": "121.499869","lat": "25.03606","addr": "臺北市萬華區西園路一段145號B2(服務中心側邊13號店鋪)"},{"name": "","lng": "121.500095","lat": "25.036045","addr": "臺北市萬華區西園路一段145號B2(龍山寺文史館24號店鋪)"},{"name": "","lng": "121.499838","lat": "25.035937","addr": "臺北市萬華區西園路一段145號B2(萬華堂工藝講堂3號店鋪)"},{"name": "艋舺就業服務處","lng": "121.501335","lat": "25.033425","addr": "臺北市萬華區艋舺大道101號3樓(書寫區上方)"},{"name": "龍山商場","lng": "121.499882","lat": "25.034979","addr": "臺北市萬華區和平西路三段120號(1樓美食街右側)"},{"name": "龍山商場","lng": "121.499877","lat": "25.034951","addr": "臺北市萬華區和平西路三段120號(1樓美食街左側)"},{"name": "萬華昆明區民活動中心","lng": "121.503872","lat": "25.0386","addr": "臺北市萬華區昆明街284號1樓(舞台前方天花板上)"},{"name": "萬華長順區民活動中心","lng": "121.491062","lat": "25.031249","addr": "臺北市萬華區長順街臨127號(舞台前上方天花板)"},{"name": "萬華柳鄉區民活動中心","lng": "121.495453","lat": "25.036889","addr": "臺北市萬華區環河南路二段102號3樓(中央天花板)"},{"name": "萬華新富區民活動中心","lng": "121.500523","lat": "25.036189","addr": "臺北市萬華區廣州街152巷10號1樓(進門左手邊小房間牆壁上)"},{"name": "萬華萬青區民活動中心","lng": "121.49906","lat": "25.021822","addr": "臺北市萬華區萬大路411號2樓(教室1中央花板)"},{"name": "萬華萬華區民活動中心","lng": "121.495705","lat": "25.027922","addr": "臺北市萬華區東園街19號2樓(舞台前方天花板)"},{"name": "萬華萬華第一區民活動中心","lng": "121.500967","lat": "25.029031","addr": "臺北市萬華區萬大路614之1號(萬大第一)中央天花板"},{"name": "萬華萬華第二區民活動中心","lng": "121.500168","lat": "25.02476","addr": "臺北市萬華區萬大路臨600之1(萬大第二)第二個入口上方"},{"name": "萬華雙園區民活動中心","lng": "121.498206","lat": "25.032339","addr": "臺北市萬華區西園路二段9號1樓(舞台旁電視櫃上方)"},{"name": "萬華光復區民活動中心","lng": "121.496953","lat": "25.03068","addr": "臺北市萬華區西園路二路370之1號(冷氣機旁佈告欄上方)"},{"name": "萬華和德區民活動中心","lng": "121.49111","lat": "25.025298","addr": "臺北市萬華區西園路二段路372之10號(辦公室旁公告欄上)"},{"name": "萬華頂碩區民活動中心","lng": "121.502218","lat": "25.03228","addr": "臺北市萬華區興寧街2號3樓(入口旁天花板上)"},{"name": "萬華菜園區民活動中心","lng": "121.493723","lat": "25.034411","addr": "臺北市萬華區環河南路一段臨280之3號(門口右側天花板上)"},{"name": "萬華福星區民活動中心","lng": "121.506958","lat": "25.046766","addr": "臺北市萬華區西寧南路14-3號2樓(弧形中央台上方)"},{"name": "萬華青山區民活動中心","lng": "121.493729","lat": "25.034411","addr": "臺北市萬華區環河南路二段臨5之1號(舞台前上方)"},{"name": "承德區民活動中心","lng": "121.521861","lat": "25.079161","addr": "臺北市士林區承德路四段5之1號(中央天花板)"},{"name": "富福區民活動中心","lng": "121.500938","lat": "25.033428","addr": "臺北市萬華區康定路319號(東側入口3樓活動中心中央天花板)"},{"name": "力行分館","lng": "121.556496","lat": "24.979578","addr": "臺北市文山區一壽街22號6樓(圓形樓梯上來左邊排柱子第1與第2支柱子中間天花板)"},{"name": "力行分館","lng": "121.556498","lat": "24.979576","addr": "臺北市文山區一壽街22號7樓(9號美術櫃上方兩盞燈中間天花板)"},{"name": "力行分館","lng": "121.556498","lat": "24.979579","addr": "臺北市文山區一壽街22號8樓(自修室進入第1支柱子與第2支柱子中間靠右2塊天花板)"},{"name": "永建分館","lng": "121.550996","lat": "24.987718","addr": "臺北市文山區木柵路一段177號3樓(自修室門口進入左轉第3盞燈與第4盞燈中間天花板)"},{"name": "永建分館","lng": "121.550996","lat": "24.987716","addr": "臺北市文山區木柵路一段177號4樓(門口進入第一支柱子與冷氣機上方天花板)"},{"name": "木柵分館","lng": "121.56915","lat": "24.988513","addr": "臺北市文山區保儀路13巷3號3樓(第四排書架中間走道日光燈架上)"},{"name": "木柵分館","lng": "121.56914","lat": "24.988513","addr": "臺北市文山區保儀路13巷3號3樓(館藏特色區圓形造型台面櫃檯上)"},{"name": "景新分館","lng": "121.542032","lat": "24.990152","addr": "臺北市文山區景後街151號5樓(門口進入直走到底轉角處電燈旁)"},{"name": "景新分館","lng": "121.542033","lat": "24.990152","addr": "臺北市文山區景後街151號6樓(兒童閱覽區圓型柱子往前數第5塊天花板)"},{"name": "景新分館","lng": "121.542032","lat": "24.990154","addr": "臺北市文山區景後街151號7樓(電腦區維修孔上方)"},{"name": "景新分館","lng": "121.542032","lat": "24.990156","addr": "臺北市文山區景後街151號8樓(陽台旁樓梯上來右手邊長形沙發上方天花板)"},{"name": "景新分館","lng": "121.542036","lat": "24.990152","addr": "臺北市文山區景後街151號9樓(陽台旁樓梯上來右側走道避難指示燈旁天花板)"},{"name": "萬芳民眾閱覽室","lng": "121.569178","lat": "25.002215","addr": "臺北市文山區萬美街一段25號1樓(服務台上方天花板)"},{"name": "萬芳民眾閱覽室","lng": "121.569177","lat": "25.002215","addr": "臺北市文山區萬美街一段25號2樓(樓梯上來左前方第一支柱往右數第五塊天花板)"},{"name": "萬興分館","lng": "121.576501","lat": "24.988685","addr": "臺北市文山區萬壽路27號4樓(門口進入直走第一台影印機右邊上方電燈與出風孔中間天花板)"},{"name": "萬興分館","lng": "121.576503","lat": "24.988685","addr": "臺北市文山區萬壽路27號5樓(門口進入自修室走道第2個門口上方中間天花板)"},{"name": "文山分館","lng": "121.55142","lat": "25.001586","addr": "臺北市文山區興隆路二段160號7樓(資料參考區牌子旁天花板)(兒童參考資料區)"},{"name": "文山分館","lng": "121.55143","lat": "25.001586","addr": "臺北市文山區興隆路二段160號7樓(影印機與線上查調機中間天花板)"},{"name": "文山分館","lng": "121.55144","lat": "25.001586","addr": "臺北市文山區興隆路二段160號8樓(門口進入直走左手邊柱子喇叭往右數第4塊天花板)"},{"name": "文山分館","lng": "121.55142","lat": "25.001587","addr": "臺北市文山區興隆路二段160號9樓(電梯出來門口進入左轉中間兩支柱子中間天花板)"},{"name": "文山樟腳區民活動中心","lng": "121.567309","lat": "24.98242","addr": "臺北市文山區恆光街45號8樓(冷氣機上方)"},{"name": "文山分館","lng": "121.55142","lat": "25.001585","addr": "臺北市文山區興隆路二段160號9樓(機房門口直看過去中間兩支柱子中間天花板)"},{"name": "安康民眾閱覽室","lng": "121.5608","lat": "24.987728","addr": "臺北市文山區興隆路四段105巷1號4樓(門口進入展覽書區牌子旁天花板傳輸)"},{"name": "景美分館","lng": "121.536373","lat": "25.003607","addr": "臺北市文山區羅斯福路五段176巷50號2樓(進入圓型柱子旁天花板)"},{"name": "景美分館","lng": "121.536375","lat": "25.003607","addr": "臺北市文山區羅斯福路五段176巷50號3樓(另一端安全門右側牆面上時鐘數過來第3塊天花板)"},{"name": "景美分館","lng": "121.536373","lat": "25.003606","addr": "臺北市文山區羅斯福路五段176巷50號4樓(自修室中間靠泠氣機之柱子旁天花板)"},{"name": "景新分館","lng": "121.542031","lat": "24.990153","addr": "臺北市文山區景後街151號(1樓樂齡中心)"},{"name": "萬芳醫院","lng": "121.558223","lat": "24.999793","addr": "臺北市文山區興隆路三段111號1樓(手扶梯前大廳上方)"},{"name": "萬芳醫院","lng": "121.558291","lat": "25.000138","addr": "臺北市文山區興隆路三段111號1樓(復健科櫃台前上方)"},{"name": "萬芳醫院","lng": "121.558141","lat": "25.000014","addr": "臺北市文山區興隆路三段111號2樓(中醫科門診前上方)"},{"name": "萬芳醫院","lng": "121.558032","lat": "24.999803","addr": "臺北市文山區興隆路三段111號2樓(眼科前方走道上方)"},{"name": "貓空纜車貓空站","lng": "121.588295","lat": "24.968914","addr": "臺北市文山區指南路三段38巷35號(1樓詢問處天花板上)"},{"name": "貓空纜車動物園站","lng": "121.576314","lat": "24.996085","addr": "臺北市文山區新光路二段8號(2樓商店前走道區天花板)"},{"name": "貓空纜車指南宮站","lng": "121.585405","lat": "24.981504","addr": "臺北市文山區萬壽路123號(3樓候車區天花板內)"},{"name": "貓空纜車動物園內站","lng": "121.587408","lat": "24.968277","addr": "臺北市文山區新光路二段30-2號(一樓上網桌上方)"},{"name": "古亭地政事務所","lng": "121.536124","lat": "25.000651","addr": "臺北市文山區萬隆街47-12號3樓(3F服務臺上方)"},{"name": "景美戶政事務所","lng": "121.5402","lat": "24.99222","addr": "臺北市文山區興隆路二段160號三樓(服務台前方跑馬燈)"},{"name": "臺北市立社會教育館-文化劇場","lng": "121.541329","lat": "24.991812","addr": "臺北市文山區景文街32號(5F行政辦公室)"},{"name": "富德靈骨塔","lng": "121.59446","lat": "24.998895","addr": "臺北市文山區木柵路五段190號(靈骨塔入門口左側的服務中心天花板上)"},{"name": "老人自費安養中心","lng": "121.56247","lat": "24.986284","addr": "臺北市文山區興隆路四段109巷30弄6號(服務台前方冷氣上方天花板)"},{"name": "木柵市場","lng": "121.567976","lat": "24.986439","addr": "臺北市文山區保儀路一段13巷3號(1F大門上方屋簷)"},{"name": "興隆市場","lng": "121.54733","lat": "24.99982","addr": "臺北市文山區興隆路二段97號(38與43前方走道上方)"},{"name": "木柵市場","lng": "121.56814","lat": "24.986603","addr": "臺北市文山區保儀路一段13巷3號(1樓44攤位左邊上方)"},{"name": "木柵市場","lng": "121.56814","lat": "24.986605","addr": "臺北市文山區保儀路一段13巷3號(2樓149攤位左邊上方)"},{"name": "木柵市場","lng": "121.56814","lat": "24.986607","addr": "臺北市文山區保儀路一段13巷3號(2樓148攤位左邊上方)"},{"name": "木新市場","lng": "121.55696","lat": "24.98153","addr": "臺北市文山區木新路3段310巷4號(攤位編號:112)"},{"name": "貓熊館","lng": "121.583161","lat": "24.997265","addr": "臺北市文山區新光路二段30號(二樓賣場門口上方)"},{"name": "文山萬芳區民活動中心","lng": "121.568186","lat": "25.002263","addr": "臺北市文山區萬美街一段51號3樓"},{"name": "文山萬福區民活動中心","lng": "121.537017","lat": "25.00064","addr": "臺北市文山區萬隆街47之12號地下室(舞台前方天花板)"},{"name": "文山興豐區民活動中心","lng": "121.546894","lat": "25.00002","addr": "臺北市文山區興隆路二段95巷8號8樓(教室一門口前方走廊上)"},{"name": "文山木新區民活動中心","lng": "121.556986","lat": "24.981472","addr": "臺北市文山區木新路三段310巷4號2樓之1(門口上方天花板上)"},{"name": "文山忠順區民活動中心","lng": "121.563096","lat": "24.984658","addr": "臺北市文山區忠順街二段22號2樓(門口前方天花板)"},{"name": "文山景行區民活動中心","lng": "121.540601","lat": "24.992127","addr": "臺北市文山區羅斯福路六段393號6-9樓(中央天花板上)"},{"name": "臺北市政府大樓","lng": "121.564386","lat": "25.037547","addr": "臺北市信義區市府路1號(台北市政府大樓1樓)"},{"name": "臺北市政府大樓","lng": "121.564384","lat": "25.037545","addr": "臺北市信義區市府路1號(台北市政府大樓1樓北側)"},{"name": "臺北市政府大樓","lng": "121.564324","lat": "25.036817","addr": "臺北市信義區市府路1號(台北市政府大樓1樓東北側)"},{"name": "臺北市政府大樓","lng": "121.564326","lat": "25.036817","addr": "臺北市信義區市府路1號(台北市政府大樓1樓南側)"},{"name": "臺北市政府大樓","lng": "121.564377","lat": "25.037881","addr": "臺北市信義區市府路1號(2樓親子劇場入口大廳)"},{"name": "臺北市政府大樓","lng": "121.564379","lat": "25.037881","addr": "臺北市信義區市府路1號(台北市政府大樓2樓南區)"},{"name": "臺北市政府大樓","lng": "121.564375","lat": "25.037881","addr": "臺北市信義區市府路1號(台北市政府大樓B1走廊)"},{"name": "臺北市政府大樓","lng": "121.564371","lat": "25.037881","addr": "臺北市信義區市府路1號(台北市政府大樓B2商家走廊北側)"},{"name": "臺北市政府大樓","lng": "121.564377","lat": "25.037885","addr": "臺北市信義區市府路1號(台北市政府大樓B2商家走廊南側)"},{"name": "信義區行政中心","lng": "121.566864","lat": "25.03312","addr": "臺北市信義區信義路五段15號1樓(院區討論室前方四格天花板上方)"},{"name": "信義區行政中心","lng": "121.566866","lat": "25.03312","addr": "臺北市信義區信義路五段15號1樓(電梯外面走道中間天花板)"},{"name": "信義區行政中心","lng": "121.566863","lat": "25.03312","addr": "臺北市信義區信義路五段15號5樓(票號區柱子喇叭旁)"},{"name": "信義區行政中心","lng": "121.566862","lat": "25.03312","addr": "臺北市信義區信義路五段15號6樓(愛心義工辦公桌旁天花板)"},{"name": "三興分館","lng": "121.561168","lat": "25.029062","addr": "臺北市信義區吳興街156巷6號4樓兒童閱讀區"},{"name": "三興分館","lng": "121.561165","lat": "25.029062","addr": "臺北市信義區吳興街156巷6號5樓(閱覽室中心位置，閱覽區牌子前方)"},{"name": "永春分館","lng": "121.577577","lat": "25.043069","addr": "臺北市信義區松山路294號3樓(筆電區上方天花板)"},{"name": "永春分館","lng": "121.577575","lat": "25.043069","addr": "臺北市信義區松山路294號4樓(多功能活動室)"},{"name": "永春分館","lng": "121.577573","lat": "25.043069","addr": "臺北市信義區松山路294號3樓(櫃台前圓柱上方)"},{"name": "六合分館","lng": "121.568874","lat": "25.024522","addr": "臺北市信義區松仁路240巷19號3樓自修室"},{"name": "六合分館","lng": "121.568873","lat": "25.024522","addr": "臺北市信義區松仁路240巷19號5樓哺乳室門口外天花板上方"},{"name": "六合分館","lng": "121.568872","lat": "25.024522","addr": "臺北市信義區松仁路240巷19號4樓(兒童閱覽區)"},{"name": "永春分館","lng": "121.577579","lat": "25.043069","addr": "臺北市信義區松山路294號4樓(自修室正中央上方)"},{"name": "福德智慧圖書館","lng": "121.57969","lat": "25.036237","addr": "臺北市信義區福德街15號2樓(兒童閱覽區沙發後天花板內)"},{"name": "福德智慧圖書館","lng": "121.57959","lat": "25.036237","addr": "臺北市信義區福德街15號2樓(自修室中央天花板內)"},{"name": "松德院區","lng": "121.574895","lat": "25.030503","addr": "臺北市信義區松德路309號(第一院區1樓(大門口進入往左邊方向，位於社區護理門口上方))"},{"name": "松德院區","lng": "121.574895","lat": "25.030502","addr": "臺北市信義區松德路309號(第一院區1樓(大門口進入直走方向，位於初診門口前上方))"},{"name": "松德院區","lng": "121.574916","lat": "25.030218","addr": "臺北市信義區松德路309號(第二院區1樓(大門口進入，往右邊電梯方向位電梯及洗手間))"},{"name": "市府轉運站","lng": "121.565136","lat": "25.040914","addr": "臺北市信義區忠孝東路五段6號(10號月台上方)"},{"name": "市府轉運站","lng": "121.565136","lat": "25.040919","addr": "臺北市信義區忠孝東路五段6號(8號月台上方)"},{"name": "松山地政事務所","lng": "121.566153","lat": "25.028846","addr": "臺北市信義區莊敬路391巷11弄2號(1F大廳電視前方天花板內)"},{"name": "松山地政事務所","lng": "121.566155","lat": "25.028846","addr": "臺北市信義區莊敬路391巷11弄2號(2F大廳)"},{"name": "地政局土地開發總隊","lng": "121.566157","lat": "25.028846","addr": "臺北市信義區莊敬路391巷11弄2號3樓(走廊上方)"},{"name": "臺北市議會","lng": "121.562179","lat": "25.038457","addr": "臺北市信義區仁愛路四段507號1樓(大廳右方樓梯旁)"},{"name": "臺北市議會","lng": "121.562177","lat": "25.038457","addr": "臺北市信義區仁愛路四段507號1樓(交誼廳內)"},{"name": "臺北市議會","lng": "121.562175","lat": "25.038457","addr": "臺北市信義區仁愛路四段507號2樓(財委會會議室(207)內走廊)"},{"name": "臺北市議會","lng": "121.562173","lat": "25.038457","addr": "臺北市信義區仁愛路四段507號3樓(記者席(308)內上方)"},{"name": "臺北市議會","lng": "121.562179","lat": "25.038455","addr": "臺北市信義區仁愛路四段507號6樓(中央休息區)"},{"name": "臺北市議會","lng": "121.562179","lat": "25.038459","addr": "臺北市信義區仁愛路四段507號B1樓(禮堂控制室)"},{"name": "臺北市議會","lng": "121.562074","lat": "25.038494","addr": "臺北市信義區仁愛路四段507號2樓(主席檯的右後上方)"},{"name": "公共運輸處","lng": "121.574279","lat": "25.032013","addr": "臺北市信義區松德路300號4樓(入口處左上方)"},{"name": "臺北市政府大樓","lng": "121.564851","lat": "25.037494","addr": "臺北市信義區市府路1號(7F中央區走道中間上方)"},{"name": "停車管理工程處服務台","lng": "121.574277","lat": "25.032016","addr": "臺北市信義區松德路300號(1F服務臺)"},{"name": "停車管理工程處服務台","lng": "121.57417","lat": "25.031916","addr": "臺北市信義區松德路300號6樓(營運科停車登記證申辦處)"},{"name": "永春市場","lng": "121.577577","lat": "25.043064","addr": "臺北市信義區松山路294號(後門口)"},{"name": "信義六合里區民活動中心","lng": "121.568873","lat": "25.024521","addr": "臺北市信義區松仁路240巷19號3樓"},{"name": "信義西村里區民活動中心","lng": "121.559205","lat": "25.03501","addr": "臺北市信義區基隆路一段364巷22號"},{"name": "信義惠安里區民活動中心","lng": "121.568487","lat": "25.022989","addr": "臺北市信義區吳興街506巷21號1樓"},{"name": "信義景勤里區民活動中心","lng": "121.561166","lat": "25.029062","addr": "臺北市信義區吳興街156巷6號6樓"},{"name": "信義黎忠里區民活動中心","lng": "121.558089","lat": "25.020185","addr": "臺北市信義區和平東路三段391巷16號2樓"},{"name": "信義興雅里區民活動中心","lng": "121.567473","lat": "25.043361","addr": "臺北市信義區松隆路36號3樓"},{"name": "信義三張里區民活動中心","lng": "121.566612","lat": "25.028688","addr": "臺北市信義區莊敬路423巷7弄2號1樓(投影機旁天花板)"},{"name": "新莊站","lng": "121.4518","lat": "25.03597","addr": "新北市新莊區中正路138號B1(AP位置:詢問處左前上方)"},{"name": "新莊站","lng": "121.4525","lat": "25.03613","addr": "新北市新莊區中正路138號B1(AP位置:一月台前端告示牌前上方)"},{"name": "新莊站","lng": "121.4527","lat": "25.03621","addr": "新北市新莊區中正路138號B1(AP位置:二月台前端座位區上方)"},{"name": "輔大站","lng": "121.4355","lat": "25.03272","addr": "新北市新莊區中正路510之1號B1(AP位置:詢問處左前上方)"},{"name": "輔大站","lng": "121.436","lat": "25.03283","addr": "新北市新莊區中正路510之1號B1(二月台，門號262前方)"},{"name": "丹鳳站","lng": "121.4233","lat": "25.02919","addr": "新北市新莊區中正路624之1號B1(詢問處左前上方)"},{"name": "丹鳳站","lng": "121.4227","lat": "25.02889","addr": "新北市新莊區中正路624之1號B1(編號：1月台114門前上方)"},{"name": "丹鳳站","lng": "121.4223","lat": "25.02893","addr": "新北市新莊區中正路624之1號B1(編號：2月台222門前上方)"},{"name": "迴龍站","lng": "121.4114","lat": "25.0219","addr": "新北市新莊區中正路758號B1(詢問處層中間上方)"},{"name": "迴龍站","lng": "121.4123","lat": "25.02238","addr": "新北市新莊區中正路758號B1(編號;221月台門前上方)"},{"name": "迴龍站","lng": "121.4118","lat": "25.02211","addr": "新北市新莊區中正路758號B1(編號:123及124月台門間上方)"},{"name": "丹鳳站","lng": "121.4224","lat": "25.02893","addr": "新北市新莊區中正路624之1號B1(2號出口上網桌旁)"},{"name": "輔大站","lng": "121.4356","lat": "25.03272","addr": "新北市新莊區中正路510之1號B1(3號出口上網桌旁)"},{"name": "景安站","lng": "121.504806","lat": "24.993713","addr": "新北市中和區景平路486號(1F電扶梯前)"},{"name": "景安站","lng": "121.504806","lat": "24.993712","addr": "新北市中和區景平路486號(B1電扶梯間走道)"},{"name": "景安站","lng": "121.504808","lat": "24.993712","addr": "新北市中和區景平路486號(B2月台層月台電視前)"},{"name": "中山區行政中心","lng": "121.533603","lat": "25.064229","addr": "臺北市中山區松江路367號1樓(電梯門口中間天花板)"},{"name": "中山分館","lng": "121.533507","lat": "25.064406","addr": "臺北市中山區松江路367號8樓(自修室緊急逃生指示燈旁天花板)"},{"name": "中山分館","lng": "121.533505","lat": "25.064406","addr": "臺北市中山區松江路367號8樓(圖書館進入前方館藏特色區上方)"},{"name": "大直分館","lng": "121.546759","lat": "25.081886","addr": "臺北市中山區大直街25號3樓(近筆電區旁上方天花板)"},{"name": "大直分館","lng": "121.546696","lat": "25.081831","addr": "臺北市中山區大直街25號4樓(外文圖書區上方天花板)"},{"name": "大直分館","lng": "121.546728","lat": "25.081824","addr": "臺北市中山區大直街25號5樓(自修區之中心位置)"},{"name": "恆安民眾閱覽室","lng": "121.523621","lat": "25.062881","addr": "臺北市中山區民權東路一段71巷19號5樓(自修室大門口正上方臨緊急出口燈)"},{"name": "長安分館","lng": "121.520954","lat": "25.05021","addr": "臺北市中山區長安西路3號4樓(自修室)"},{"name": "長安分館","lng": "121.520956","lat": "25.05021","addr": "臺北市中山區長安西路3號4樓(筆電區)"},{"name": "新生公園閱覽室","lng": "121.529609","lat": "25.068582","addr": "臺北市中山區新生北路三段105號(閱覽室中央位置(民族東與松江路中間))"},{"name": "林森中醫院區","lng": "121.525431","lat": "25.063503","addr": "臺北市中山區林森北路530號3樓(電梯前方維修孔)"},{"name": "中山國小站","lng": "121.526414","lat": "25.062698","addr": "臺北市中山區民權東路一段71號B1(AP位置:詢問處驗票閘門前上方)"},{"name": "中山國小站","lng": "121.526412","lat": "25.062698","addr": "臺北市中山區民權東路一段71號B1(AP位置:一月台前端座位區與電扶梯中間靠月台上方)"},{"name": "中山國小站","lng": "121.526416","lat": "25.062698","addr": "臺北市中山區民權東路一段71號B1(AP位置:二月台前端座位區與電扶梯中間靠月台上方)"},{"name": "松江南京站","lng": "121.533053","lat": "25.052034","addr": "臺北市中山區松江路126號B1(AP位置:上網桌旁)"},{"name": "松江南京站","lng": "121.533059","lat": "25.052034","addr": "臺北市中山區松江路126號B1(AP位置:一月台門號122前)"},{"name": "行天宮站","lng": "121.53282","lat": "25.060461","addr": "臺北市中山區松江路316號B1(AP位置:一月台前端121號門前上方)"},{"name": "行天宮站","lng": "121.53284","lat": "25.060461","addr": "臺北市中山區松江路316號B1(AP位置:二月台中間231號門前上方)"},{"name": "東門站","lng": "121.52927","lat": "25.033503","addr": "台北市大安區信義路二段166號"},{"name": "行天宮站","lng": "121.53286","lat": "25.060461","addr": "臺北市中山區松江路316號B1(AP位置:副詢問處右前購票機上方)"},{"name": "臺北之家(光點臺北)","lng": "121.5222","lat": "25.05328","addr": "臺北市中山區中山北路二段18號(1樓櫃台後方牆壁上)"},{"name": "中山地政事務所","lng": "121.53399","lat": "25.0636","addr": "臺北市中山區松江路357巷1號(1F大門民眾服務區)"},{"name": "中山地政事務所","lng": "121.53397","lat": "25.0636","addr": "臺北市中山區松江路357巷1號(5F民眾書寫區)"},{"name": "抽水站總管理中心大樓","lng": "121.52915","lat": "25.071163","addr": "臺北市中山區濱江街3號(走廊上燈具輕鋼架上)"},{"name": "臺北市立美術館","lng": "121.524854","lat": "25.072594","addr": "臺北市中山區中山北路三段181號(面1樓服務台左後側上方柱子)"},{"name": "北區營業分處櫃檯","lng": "121.521087","lat": "25.050846","addr": "臺北市中山區長安西路3號2樓(影印機上方輕鋼架內)"},{"name": "美術公園區夢想館","lng": "121.529627","lat": "25.068584","addr": "臺北市中山區濱江街6號(1F販賣機後方)"},{"name": "花博公園爭豔館","lng": "121.520705","lat": "25.069112","addr": "臺北市中山區玉門街1號(館內左門A3區旁出口上方)"},{"name": "中南分處","lng": "121.532186","lat": "25.060118","addr": "臺北市中山區錦州街222號3樓志工服務台前方)"},{"name": "華山市場","lng": "121.524834","lat": "25.044194","addr": "臺北市中正區忠孝東路一段108號(2F機房外)"},{"name": "華山市場","lng": "121.524853","lat": "25.044194","addr": "臺北市中正區忠孝東路一段108號(1F後門口)"},{"name": "中山下埤區民活動中心","lng": "121.540291","lat": "25.047635","addr": "臺北市中山區龍江路429巷10號(2樓里辦公室內上方)"},{"name": "中山中山區民活動中心","lng": "121.524151","lat": "25.055903","addr": "臺北市中山區中山北路二段59巷21號2樓之4(A教室門內上方)"},{"name": "中山民安區民活動中心","lng": "121.520954","lat": "25.05025","addr": "臺北市中山區長安西路3號3樓之1(活動中心內走廊天花板上)"},{"name": "中山朱崙區民活動中心","lng": "121.540498","lat": "25.047492","addr": "臺北市中山區龍江路15號3樓(319會議室內機櫃上方天花板)"},{"name": "和平院區","lng": "121.507309","lat": "25.035352","addr": "臺北市中正區中華路二段33號B棟6樓(庫房門口正上方)"},{"name": "中山朱馥區民活動中心","lng": "121.540432","lat": "25.055159","addr": "臺北市中山區龍江路168號B1(里辦公室前上方天花板)"},{"name": "中山行孝區民活動中心","lng": "121.535104","lat": "25.0681","addr": "臺北市中山區民族東路282號4樓(右邊冷氣機上)"},{"name": "中山松花區民活動中心","lng": "121.539362","lat": "25.061645","addr": "臺北市中山區合江街137號4樓(天花板上)"},{"name": "中山林森區民活動中心","lng": "121.524894","lat": "25.048643","addr": "臺北市中山區林森北路67巷7號3樓(教室內桌子下)"},{"name": "中山長安區民活動中心","lng": "121.520349","lat": "25.049385","addr": "臺北市中山區長安西路40巷9號(教室內左側出口窗戶上方)"},{"name": "中山崇實區民活動中心","lng": "121.538043","lat": "25.084918","addr": "臺北市中山區通北街143號2樓(入口右側天花板上)"},{"name": "中山新庄區民活動中心","lng": "121.527289","lat": "25.064993","addr": "臺北市中山區新生北路三段50之1號(合氣道教室冷氣機天花板上方)"},{"name": "中山興亞區民活動中心","lng": "121.532006","lat": "25.046961","addr": "臺北市中山區松江路26巷18號(鐵門上方)"},{"name": "中山大直一區民活動中心","lng": "121.546886","lat": "25.081665","addr": "臺北市中山區大直街21巷2號4樓(門口上方)"},{"name": "中山大直二區民活動中心","lng": "121.546969","lat": "25.080345","addr": "臺北市中山區大直街1號4樓(門口上方天花板)"},{"name": "中山中原區民活動中心","lng": "121.529478","lat": "25.061319","addr": "臺北市中山區新生北路二段53之3號2樓(中央天花板上)"},{"name": "中山北安區民活動中心","lng": "121.547415","lat": "25.080192","addr": "臺北市中山區北安路759巷6號(進門後左側櫃子天花板上)"},{"name": "中山行政區民活動中心","lng": "121.533601","lat": "25.064221","addr": "臺北市中山區松江路367號9樓(活動中心內上方)"},{"name": "中山金泰區民活動中心","lng": "121.556866","lat": "25.079526","addr": "臺北市中山區敬業三路160號2樓(中央天花板上)"},{"name": "中山長春區民活動中心","lng": "121.542336","lat": "25.054729","addr": "臺北市中山區長春路299號3樓之1(舞蹈教室冷氣機旁)"},{"name": "中正區行政中心","lng": "121.518326","lat": "25.032199","addr": "臺北市中正區羅斯福路一段8號6樓(取號碼牌區牌子前第3塊旁的半塊天花板)"},{"name": "王貫英先生紀念圖書館","lng": "121.523768","lat": "25.022601","addr": "臺北市中正區汀州路二段265號2樓(新移民閱覽專櫃上方)"},{"name": "王貫英先生紀念圖書館","lng": "121.523768","lat": "25.022603","addr": "臺北市中正區汀州路二段265號3樓(自修區)"},{"name": "王貫英先生紀念圖書館","lng": "121.5237687","lat": "25.022603","addr": "臺北市中正區汀州路二段265號3樓(筆電區)"},{"name": "王貫英先生紀念圖書館","lng": "121.5237687","lat": "25.022602","addr": "臺北市中正區汀州路二段265號1樓(期刊區入口上方)"},{"name": "城中分館","lng": "121.530902","lat": "25.040316","addr": "臺北市中正區濟南路二段46號3樓(兒童閱覽區前方)"},{"name": "城中分館","lng": "121.530904","lat": "25.040316","addr": "臺北市中正區濟南路二段46號3樓(一般圖書區上方天花板)"},{"name": "和平院區","lng": "121.506886","lat": "25.035601","addr": "臺北市中正區中華路二段33號A棟10樓(病床電梯往行政辦公室前走道上方)"},{"name": "和平院區","lng": "121.506884","lat": "25.035605","addr": "臺北市中正區中華路二段33號A棟1樓(109健康管理諮詢中心門前走道上方)"},{"name": "和平院區","lng": "121.506881","lat": "25.035605","addr": "臺北市中正區中華路二段33號A棟1樓(122門診門口前走道上方)"},{"name": "和平院區","lng": "121.507301","lat": "25.035351","addr": "臺北市中正區中華路二段33號A棟B1(藥局領藥門口上方)"},{"name": "和平院區","lng": "121.506886","lat": "25.035602","addr": "臺北市中正區中華路二段33號A棟3樓(中醫門診休息區走道上方)"},{"name": "和平院區","lng": "121.506883","lat": "25.035607","addr": "臺北市中正區中華路二段33號A棟6樓(護理長辦公室前上方)"},{"name": "和平院區","lng": "121.507306","lat": "25.035352","addr": "臺北市中正區中華路二段33號B棟1樓(急診觀察診留室門口正上方)"},{"name": "和平院區","lng": "121.507301","lat": "25.035352","addr": "臺北市中正區中華路二段33號B棟1樓(急診室掛號區旁上方)"},{"name": "和平院區","lng": "121.507307","lat": "25.035352","addr": "臺北市中正區中華路二段33號B棟2樓(抽血檢驗處前走道上方)"},{"name": "和平院區","lng": "121.507306","lat": "25.035356","addr": "臺北市中正區中華路二段33號B棟3樓(復健科內走道上方)"},{"name": "和平院區","lng": "121.507306","lat": "25.035353","addr": "臺北市中正區中華路二段33號B棟5樓(家屬休息室內正上方)"},{"name": "和平院區","lng": "121.507309","lat": "25.035351","addr": "臺北市中正區中華路二段33號B棟8樓(B805病房門口正上方)"},{"name": "和平院區","lng": "121.507308","lat": "25.035351","addr": "臺北市中正區中華路二段33號B棟8樓(B810病房門口正上方)"},{"name": "和平院區","lng": "121.507308","lat": "25.035358","addr": "臺北市中正區中華路二段33號B棟8樓(B820病房前走道)"},{"name": "和平院區","lng": "121.507307","lat": "25.035358","addr": "臺北市中正區中華路二段33號B棟8樓(庫房前走道上方)"},{"name": "婦幼院區","lng": "121.519278","lat": "25.029086","addr": "臺北市中正區福州街12號1F(1號批價櫃抬前2格天花板)"},{"name": "婦幼院區","lng": "121.519279","lat": "25.029086","addr": "臺北市中正區福州街12號1F(急診室入口留觀區上方天花板)"},{"name": "婦幼院區","lng": "121.519275","lat": "25.029086","addr": "臺北市中正區福州街12號2F(婦產科第4診前第7塊上方天花板)"},{"name": "臺北轉運站","lng": "121.518569","lat": "25.048786","addr": "臺北市大同區市民大道一段209號(1樓服務台旁)"},{"name": "臺北轉運站","lng": "121.518565","lat": "25.048786","addr": "臺北市中正區市民大道一段209號(2樓國光座位區上方維修孔)"},{"name": "臺北轉運站","lng": "121.518567","lat": "25.048786","addr": "臺北市中正區市民大道一段209號(2樓統聯座位區上方維修孔)"},{"name": "臺北轉運站","lng": "121.518561","lat": "25.048786","addr": "臺北市大同區市民大道一段209號(3樓統聯客運高雄)"},{"name": "臺北轉運站","lng": "121.518569","lat": "25.048788","addr": "臺北市大同區市民大道一段209號(3樓統聯客運彰化)"},{"name": "臺北轉運站","lng": "121.518569","lat": "25.048784","addr": "臺北市大同區市民大道一段209號(4樓和欣客運)"},{"name": "臺北轉運站","lng": "121.518569","lat": "25.048782","addr": "臺北市大同區市民大道一段209號(4樓葛瑪蘭客運)"},{"name": "臺北轉運站","lng": "121.516416","lat": "25.048802","addr": "臺北市中正區民大道一段209號(1樓售票前)"},{"name": "臺北二二八複合式餐廳","lng": "121.515468","lat": "25.040234","addr": "臺北市中正區凱達格蘭大道3號(南棟入口一樓前上方)"},{"name": "青少年發展中心","lng": "121.521994","lat": "25.039013","addr": "臺北市中正區仁愛路一段17號(一樓大廳靠近怡客咖啡天花板上)"},{"name": "總處稅捐處","lng": "121.52301","lat": "25.046767","addr": "臺北市中正區北平東路7之2號(1F服務中心櫃檯前上方)"},{"name": "總處稅捐處","lng": "121.52301","lat": "25.046765","addr": "臺北市中正區北平東路7之2號(2F法務科)"},{"name": "臺北市中山堂管理所","lng": "121.510166","lat": "25.043085","addr": "臺北市中正區延平南路98號(正門口右側服務台旁柱子上方)"},{"name": "西區營業分處櫃檯","lng": "121.516491","lat": "25.02972","addr": "臺北市中正區牯嶺街38號1樓(1F大門口天花板)"},{"name": "裁決所","lng": "121.535005","lat": "25.013745","addr": "臺北市中正區羅斯福路四段92號7樓(服務臺第2個柱子)"},{"name": "裁決所","lng": "121.535004","lat": "25.013741","addr": "臺北市中正區羅斯福路四段92號7樓(服務臺第4個柱子)"},{"name": "臺北市政府警察局局本部","lng": "121.509769","lat": "25.043911","addr": "臺北市中正區延平南路96號(志工服務台上方天花板)"},{"name": "中正分處","lng": "121.52301","lat": "25.046767","addr": "臺北市中正區北平東路7-2號1樓(左側服務台上方)"},{"name": "交通警察大隊","lng": "121.510986","lat": "25.035408","addr": "臺北市中正區愛國西路26號(1樓聯合服務中心服務台前方天花板)"},{"name": "替代役中心","lng": "121.526889","lat": "25.017718","addr": "臺北市中正區汀洲路三段8號1樓(運動中心-2)"},{"name": "臺北車站旅客服務中心","lng": "121.516543","lat": "25.047313","addr": "臺北市中正區北平西路3號(臺北車站1F大廳西南側-旅遊服務中心)"},{"name": "光華數位新天地","lng": "121.53191","lat": "25.045059","addr": "臺北市中正區市民大道三段8號(服務台桌上電腦旁)"},{"name": "南門市場","lng": "121.518031","lat": "25.032382","addr": "臺北市中正區羅斯福路一段8號(2樓美食區中央大電視旁)"},{"name": "水源市場","lng": "121.535004","lat": "25.013744","addr": "臺北市中正區羅斯福路四段92號1F(023與025攤位中央走道上)"},{"name": "水源市場","lng": "121.535006","lat": "25.013744","addr": "臺北市中正區羅斯福路四段92號1F(048與076攤位中央走道上)"},{"name": "水源市場","lng": "121.535006","lat": "25.013743","addr": "臺北市中正區羅斯福路四段92號1F(059與098攤位中央走道上)"},{"name": "東門站","lng": "121.52927","lat": "25.033503","addr": "台北市大安區信義路二段166號"},{"name": "水源市場","lng": "121.53498","lat": "25.013593","addr": "臺北市中正區羅斯福路四段92號1F(029攤位前中央走道上)"},{"name": "中正中華區民活動中心","lng": "121.507189","lat": "25.033731","addr": "臺北市中正區中華路二段291號地下室(柱子上方天花板)"},{"name": "中正水源區民活動中心","lng": "121.535005","lat": "25.013743","addr": "臺北市中正區羅斯福路四段92號4樓"},{"name": "中正幸安區民活動中心","lng": "121.530906","lat": "25.040316","addr": "臺北市中正區濟南路二段46號3樓(中央天花板)"},{"name": "中正富水區民活動中心","lng": "121.52144","lat": "25.02073","addr": "臺北市中正區水源路臨26、28號(左邊音響上方)"},{"name": "中正龍興區民活動中心","lng": "121.510961","lat": "25.028125","addr": "臺北市中正區三元街131號4樓(消防箱電源開關箱上)"},{"name": "先嗇宮站","lng": "121.47129","lat": "25.04658","addr": "新北市三重區重新路五段515號B1樓"},{"name": "公共電話亭","lng": "121.51517","lat": "25.04625","addr": "台北市中正區忠孝西路一段66號B1樓"},{"name": "公共電話亭","lng": "121.51517","lat": "25.04623","addr": "台北市中正區忠孝西路一段66號1樓"},{"name": "古亭站","lng": "121.52327","lat": "25.02559","addr": "台北市中正區羅斯福路二段164號之1,B1樓"},{"name": "古亭站","lng": "121.523155","lat": "25.025509","addr": "台北市中正區羅斯福路二段164號之1,B1樓"},{"name": "古亭站","lng": "121.52314","lat": "25.025509","addr": "台北市中正區羅斯福路二段164號之1,B1樓"},{"name": "古亭站","lng": "121.523125","lat": "25.025509","addr": "台北市中正區羅斯福路二段164號之1,B1樓"},{"name": "古亭站","lng": "121.52327","lat": "25.025509","addr": "台北市中正區羅斯福路二段164號之1,B1樓"},{"name": "古亭站","lng": "121.52308","lat": "25.025509","addr": "台北市中正區羅斯福路二段164號之1,B1樓"},{"name": "忠孝新生站","lng": "121.53308","lat": "25.042015","addr": "台北市大安區新生南路一段67號"},{"name": "公共電話亭","lng": "121.51524","lat": "25.04621","addr": "台北市中正區忠孝西路一段66號B1樓"},{"name": "東門站","lng": "121.52927","lat": "25.03385","addr": "台北市大安區信義路二段166號"},{"name": "頭前庄站","lng": "121.460884","lat": "25.039848","addr": "新北市新莊區思源路18號B1樓"},{"name": "頭前庄站","lng": "121.46068","lat": "25.039768","addr": "新北市新莊區思源路18號B1樓"},{"name": "頭前庄站","lng": "121.46075","lat": "25.039768","addr": "新北市新莊區思源路18號B2樓"},{"name": "新莊站","lng": "121.45242","lat": "25.03638","addr": "新北市新莊區中正路138號1樓"},{"name": "新莊站","lng": "121.45238","lat": "25.036406","addr": "新北市新莊區中正路138號2樓"},{"name": "三重國小站","lng": "121.49666","lat": "25.07076","addr": "新北市三重區三和路三段3號"},{"name": "三重國小站","lng": "121.497","lat": "25.0703","addr": "新北市三重區三和路三段3號"},{"name": "三和國中站","lng": "121.48656","lat": "25.077011","addr": "新北市三重區三和路四段107號"},{"name": "公共電話亭","lng": "121.541504","lat": "24.968367","addr": "新北市新店區北新路一段325號"},{"name": "松江南京站","lng": "121.53266","lat": "25.052776","addr": "台北市中山區松江路126號"},{"name": "大橋頭站","lng": "121.51394","lat": "25.06321","addr": "台北市大同區民權西路223號"},{"name": "大橋頭站","lng": "121.51394","lat": "25.06321","addr": "台北市大同區民權西路223號"},{"name": "大橋頭站","lng": "121.51394","lat": "25.06321","addr": "台北市大同區民權西路223號"},{"name": "忠孝新生站","lng": "121.5331","lat": "25.042036","addr": "台北市大安區新生南路一段67號"},{"name": "三民高中站","lng": "121.472595","lat": "25.085646","addr": "新北市蘆洲區三民路105號"},{"name": "三民高中站","lng": "121.4725","lat": "25.085646","addr": "新北市蘆洲區三民路105號"},{"name": "松江南京站","lng": "121.53266","lat": "25.052776","addr": "台北市中山區松江路126號B2樓"},{"name": "中山國中站","lng": "121.544014","lat": "25.060827","addr": "台北市中山區復興北路376號2樓"},{"name": "民權西路站","lng": "121.51955","lat": "25.062557","addr": "台北市大同區民權西路72號1樓"},{"name": "民權西路站","lng": "121.51955","lat": "25.062557","addr": "台北市大同區民權西路72號1樓"},{"name": "民權西路站","lng": "121.51955","lat": "25.062557","addr": "台北市大同區民權西路72號"},{"name": "永安站","lng": "121.510994","lat": "25.002266","addr": "新北市中和區中和路388號"},{"name": "永安站","lng": "121.51106","lat": "25.00231","addr": "新北市中和區中和路388號"},{"name": "永安站","lng": "121.51098","lat": "25.002266","addr": "新北市中和區中和路388號"},{"name": "永安站","lng": "121.511","lat": "25.002296","addr": "新北市中和區中和路388號"},{"name": "永安站","lng": "121.51102","lat": "25.002296","addr": "新北市中和區中和路388號"},{"name": "景安站","lng": "121.50518","lat": "24.994267","addr": "新北市中和區景安路142號"},{"name": "景安站","lng": "121.504974","lat": "24.99416","addr": "新北市中和區景安路142號"},{"name": "台北橋站","lng": "121.500885","lat": "25.063078","addr": "新北市三重區重新路一段108號B1樓"},{"name": "台北橋站","lng": "121.500854","lat": "25.063078","addr": "新北市三重區重新路一段108號B1樓"},{"name": "先嗇宮站","lng": "121.47129","lat": "25.04658","addr": "新北市三重區重新路五段515號B1樓"},{"name": "陽明山花鐘公園","lng": "121.538827","lat": "25.158631","addr": "臺北市北投區湖山路二段(陽明山花鐘公園停車場10米路燈)"},{"name": "中庸公園","lng": "121.501171","lat": "25.137977","addr": "臺北市北投區雙全街與珠海路交叉路口(涼亭前路燈)"},{"name": "三玉宮","lng": "121.531235","lat": "25.118039","addr": "臺北市士林區天母東路6-2號(前方候車亭)"},{"name": "北投國小","lng": "121.500908","lat": "25.133975","addr": "臺北市北投區中央北路一段12號(對面候車亭)"},{"name": "清江國小","lng": "121.507663","lat": "25.126957","addr": "臺北市北投區公館路220號(大門右方公車亭)"},{"name": "榮總","lng": "121.52016","lat": "25.120184","addr": "臺北市北投區石牌路二段201號(北護後門西方50公尺處)"},{"name": "中正高中","lng": "121.517671","lat": "25.105054","addr": "臺北市北投區文林北路55號(前方候車亭)"},{"name": "北投公園","lng": "121.50421","lat": "25.1364","addr": "臺北市北投區光明路235號(對面候車亭)"},{"name": "捷運北投站","lng": "121.498249","lat": "25.131324","addr": "臺北市北投區北投路二段(捷運北投站出口候車亭)"},{"name": "師大夜市商圈","lng": "121.528562","lat": "25.023187","addr": "臺北市大安區師大路87號(前號誌)"},{"name": "臨江夜市","lng": "121.554256","lat": "25.030215","addr": "臺北市大安區通化街73號右側(夜市牌樓上)"},{"name": "大安森林公園","lng": "121.533227","lat": "25.044019","addr": "臺北市大安區新生南路二段1號(公園內音樂台上)"},{"name": "建國花市-1","lng": "121.537847","lat": "25.034026","addr": "臺北市大安區建國南路高架橋下(信義路至仁愛路)第13號車位"},{"name": "建國花市-2","lng": "121.537911","lat": "25.036359","addr": "臺北市大安區建國南路高架橋下(信義路至仁愛路)第63號車位"},{"name": "捷運忠孝新生站北","lng": "121.532952","lat": "25.041919","addr": "臺北市大安區新生南路一段85號對面候車亭"},{"name": "延三夜市商圈","lng": "121.5113","lat": "25.062671","addr": "臺北市大同區民權西路與延平北路二段(西北角號誌)"},{"name": "大龍街夜市商圈","lng": "121.515888","lat": "25.071983","addr": "臺北市大同區酒泉街與大龍街交叉口(東北角號誌)"},{"name": "圓山轉運站","lng": "121.52","lat": "25.07185","addr": "臺北市大同區庫倫街66號(前方路口號誌上)"},{"name": "玉泉公園","lng": "121.507","lat": "25.04993","addr": "臺北市大同區西寧北路28號(游泳池服務中心外牆上)"},{"name": "大稻埕公園","lng": "121.510124","lat": "25.058605","addr": "臺北市大同區歸綏街243號(西北側停車場人行出入口)"},{"name": "大稻埕公園","lng": "121.510518","lat": "25.058363","addr": "臺北市大同區歸綏街243號(東南側停車場出入口)"},{"name": "建國計程車服務站","lng": "121.536225","lat": "25.044161","addr": "臺北市大安區建國南路一段34號(管理員室外牆上)"},{"name": "大稻埕租借站","lng": "121.5075","lat": "25.05586","addr": "臺北市大同區民生西路底，大稻埕疏散門進入，大稻埕碼頭南側(租借站貨櫃屋上方)"},{"name": "玉成公園","lng": "121.585276","lat": "25.041824","addr": "臺北市南港區中坡南路55號(管理中心上方)"},{"name": "南港公園","lng": "121.5913","lat": "25.04576","addr": "臺北市南港區東新街170之1號(公園內管理中心旁路燈上)"},{"name": "玉成公園","lng": "121.584187","lat": "25.042861","addr": "臺北市南港區中坡南路55號(第二公廁)"},{"name": "中研院","lng": "121.616746","lat": "25.043324","addr": "臺北市南港區研究院路二段77號(左側候車亭)"},{"name": "中研新村","lng": "121.615114","lat": "25.045506","addr": "臺北市南港區研究院路二段78號(對面候車亭)"},{"name": "南港軟體園區北站","lng": "121.6141","lat": "25.0586","addr": "臺北市南港區三重路19-12號(前方候車亭)"},{"name": "南港軟體園區南站","lng": "121.613874","lat": "25.056346","addr": "臺北市南港區三重路19-2號(前方候車亭)"},{"name": "內湖737夜市","lng": "121.578727","lat": "25.079726","addr": "臺北市內湖區內湖路一段737巷35號(立招上方)"},{"name": "碧湖公園綠地","lng": "121.582747","lat": "25.079851","addr": "臺北市內湖區內湖路二段103巷與國立臺灣戲曲學院之間(公園內圖書館上方)"},{"name": "大湖公園","lng": "121.602988","lat": "25.080493","addr": "臺北市內湖區成功路五段31號(公廁上)"},{"name": "南京舊宗路口","lng": "121.579969","lat": "25.055905","addr": "臺北市內湖區南京東路六段與新明路380巷口(對面候車亭)"},{"name": "美麗華","lng": "121.559057","lat": "25.085321","addr": "臺北市內湖區內湖路一段1巷1號(前方候車亭)"},{"name": "國防醫學中心","lng": "121.59","lat": "25.07119","addr": "臺北市內湖區成功路二段410號(對面候車亭)"},{"name": "康寧醫院","lng": "121.607132","lat": "25.075648","addr": "臺北市內湖區成功路五段420巷(巷口候車亭)"},{"name": "士林夜市","lng": "121.526299","lat": "25.088009","addr": "臺北市士林區士林區文林路102號(前號誌)"},{"name": "士林夜市商店街","lng": "121.5242","lat": "25.08809","addr": "臺北市士林區基河路101號1樓(113攤位上方貓道延伸抱桿上)"},{"name": "忠誠公園","lng": "121.524749","lat": "25.103957","addr": "臺北市士林區中山北路六段53號前號誌上"},{"name": "原住民公園","lng": "121.551084","lat": "25.100506","addr": "臺北市士林區至善路二段270號(對面號誌上)"},{"name": "陽明公園","lng": "121.540104","lat": "25.159198","addr": "臺北市北投區湖山路二段26號(旅客服務中心屋頂上)"},{"name": "士林官邸公園","lng": "121.530156","lat": "25.094898","addr": "臺北市士林區福林路60號(商品販賣部上方)"},{"name": "雙溪公園","lng": "121.534489","lat": "25.097771","addr": "臺北市士林區福林路250號(前號誌)"},{"name": "天母運動公園","lng": "121.533453","lat": "25.113626","addr": "臺北市士林區忠誠路二段77號(網球場指向草坪)"},{"name": "故宮博物院","lng": "121.549441","lat": "25.099373","addr": "臺北市士林區至善路二段150號(對面候車亭)"},{"name": "福林國小(西)","lng": "121.5293","lat": "25.09614","addr": "臺北市士林區中正路116號(左側候車亭)"},{"name": "福林國小(東)","lng": "121.5289","lat": "25.09585","addr": "臺北市士林區中正路116號(對面候車亭)"},{"name": "文化大學","lng": "121.546476","lat": "25.137889","addr": "臺北市士林區格致路57號(前號誌打摩斯漢堡左側候車亭)"},{"name": "忠誠公園","lng": "121.525876","lat": "25.103949","addr": "臺北市士林區忠誠路一段16巷(對面(忠誠公園候車亭))"},{"name": "天母棒球場","lng": "121.531928","lat": "25.113364","addr": "臺北市士林區忠誠路二段77號(前方候車亭)"},{"name": "天母棒球場","lng": "121.532239","lat": "25.114281","addr": "臺北市士林區忠誠路二段134號(前方候車亭)"},{"name": "啟智學校","lng": "121.534645","lat": "25.117369","addr": "臺北市士林區天母東路8巷19弄(對面候車亭(新三光越天母店對面))"},{"name": "饒河街夜市","lng": "121.577524","lat": "25.050912","addr": "臺北市松山區八德路四段與饒河街交叉口(牌樓上方)"},{"name": "武昌市場","lng": "121.560325","lat": "25.052487","addr": "臺北市松山區南京東路五段59巷27弄30號(屋簷下)"},{"name": "松山機場1","lng": "121.551881","lat": "25.063677","addr": "臺北市松山區敦化北路340之9號(前方候車亭(松山機場大門前編號1號候車亭))"},{"name": "智慧公車亭　南京寧安街口","lng": "121.5549","lat": "25.051529","addr": "臺北市松山區南京東路四段56號(前中央分隔島公車亭，路口西側)"},{"name": "智慧公車亭　南京寧安街口","lng": "121.55525","lat": "25.051611","addr": "臺北市松山區南京東路四段134號(前中央分隔島公車亭，路口東側)"},{"name": "智慧公車亭　松山車站(八德)","lng": "121.57836","lat": "25.049825","addr": "臺北市松山區八德路四段758號(左邊空地與捷運松山站四號出口中間)"},{"name": "彩虹橋","lng": "121.588291","lat": "25.054951","addr": "臺北市松山區松河街172號對面堤防上(基四閘門上方)"},{"name": "華西街夜市","lng": "121.4984","lat": "25.03856","addr": "臺北市萬華區華西街夜市117攤位上方"},{"name": "南機場市場","lng": "121.503808","lat": "25.028368","addr": "臺北市萬華區中華路二段364巷22弄33號(南機場市場入口處)"},{"name": "西昌街夜市","lng": "121.500674","lat": "25.03707","addr": "臺北市萬華區西昌街239號(前路燈)"},{"name": "青年公園","lng": "121.506907","lat": "25.022041","addr": "臺北市萬華區水源路199號(1號門進入花鍾左手邊白色建築物前路燈)"},{"name": "第一果菜批發市場 ","lng": "121.4984","lat": "25.01836","addr": "臺北市萬華區萬大路533號(果菜市場56柱子中央走道上方)"},{"name": "第一果菜批發市場","lng": "121.4976","lat": "25.01873","addr": "臺北市萬華區萬大路533號(果菜市場0601~0633牌子旁鐵桿近44柱子)"},{"name": "華中租借站","lng": "121.505278","lat": "25.023056","addr": "臺北市萬華區青年路與水源路口(馬場町紀念公園)(租借站貨櫃屋上方)"},{"name": "景華公園","lng": "121.543793","lat": "24.995186","addr": "臺北市文山區景華街55號(停車場入口四號門入口上方)"},{"name": "景美運動公園","lng": "121.544671","lat": "25.002059","addr": "臺北市文山區景豐街79號(交通警察大隊門口路燈上)"},{"name": "名門社區","lng": "121.574158","lat": "24.999032","addr": "臺北市文山區和平東路四段83號(對面候車亭)"},{"name": "溝子口","lng": "121.55218","lat": "24.988643","addr": "臺北市文山區辛亥路六段92號(對面候車亭)"},{"name": "萬芳國小","lng": "121.5681","lat": "25.00105","addr": "臺北市文山區萬和街1號(旁邊候車亭)"},{"name": "萬美社區","lng": "121.562836","lat": "25.003488","addr": "臺北市文山區萬美街二段與萬寧街交叉口(11號公園對面候車亭)"},{"name": "景美國中","lng": "121.542961","lat": "24.993018","addr": "臺北市文山區景中街27號(對面候車亭(景行公園))"},{"name": "河馬廣場","lng": "121.587012","lat": "24.99535","addr": "臺北市文山區新光路二段30號(河馬廣場左側)"},{"name": "大門口","lng": "121.581267","lat": "24.998809","addr": "臺北市文山區新光路二段30號(大門口售票亭)"},{"name": "旅客中心","lng": "121.581018","lat": "24.998291","addr": "臺北市文山區新光路二段30號(進大門口右側服務中心樓上)"},{"name": "餐廳","lng": "121.581731","lat": "24.998738","addr": "臺北市文山區新光路二段30號(進大門口左側麥當勞樓上)"},{"name": "綠手指教室","lng": "121.582338","lat": "24.997654","addr": "臺北市文山區新光路二段30號(動物園教育中心西側綠手指教室及休息區)"},{"name": "信義廣場","lng": "121.564837","lat": "25.03429","addr": "臺北市信義區松智路與信義路交叉口(地下停車場出入口旁路燈上)"},{"name": "雙城街夜市","lng": "121.524278","lat": "25.064959","addr": "臺北市中山區雙城街與農安街交叉口(東北方路燈)"},{"name": "四平商圈","lng": "121.533649","lat": "25.068169","addr": "臺北市中山區松江路129號(前號誌)"},{"name": "四平街72號","lng": "121.53395","lat": "25.053531","addr": "臺北市中山區四平街72號(前路燈)"},{"name": "中山14、15號公園","lng": "121.527123","lat": "25.053082","addr": "臺北市中山區南京東路一段以北、林森北路東西側。林森北路東側至新生北路為中山十四號公園、林森北路西側為中山十五號公園(林森公園內服務中心外牆上)"},{"name": "花博公園圓山園區長廊廣場後段","lng": "121.520706","lat": "25.069114","addr": "臺北市中山區玉門街1號(花博公園圓山園區商城AS18店鋪上方)"},{"name": "花博公園圓山園區長廊廣場前段","lng": "121.520706","lat": "25.069116","addr": "臺北市中山區玉門街1號(花博公園圓山園區長廊廣場前段)"},{"name": "中山花博公園美術園區","lng": "121.520718","lat": "25.071042","addr": "臺北市中山區民族東路20號對面美術園區舞蝶館(面對舞台右側)"},{"name": "花博公園圓山園區商城服務台+用餐區","lng": "121.520706","lat": "25.069118","addr": "臺北市中山區玉門街1號(花博公園圓山園區商城AS23服務台上方背板後方)"},{"name": "花博公園圓山園區商城後段區","lng": "121.520706","lat": "25.069112","addr": "臺北市中山區玉門街1號(花博公園圓山園區商城AS30店鋪上方背板後方)"},{"name": "捷運大直站","lng": "121.546323","lat": "25.079696","addr": "臺北市中山區北安路522號(對面候車亭)"},{"name": "臺北大學(臺北校區)","lng": "121.542109","lat": "25.057903","addr": "臺北市中山區民生東路三段88巷(左側旁候車亭)"},{"name": "智慧公車亭　南京林森路口","lng": "121.52556","lat": "25.052104","addr": "臺北市中山區南京東路一段86號(前中央分隔島公車亭，路口東側)"},{"name": "智慧公車亭　捷運松江南京站","lng": "121.53278","lat": "25.051976","addr": "臺北市中山區南京東路二段98號(前中央分隔島公車亭，路口西側)"},{"name": "智慧公車亭　捷運松江南京站","lng": "121.53338","lat": "25.052057","addr": "臺北市中山區南京東路二段111-1號(前中央分隔島公車亭，路口東側)"},{"name": "智慧公車亭　南京建國路口","lng": "121.53728","lat": "25.051947","addr": "臺北市中山區南京東路三段2號(前中央分隔島公車亭，路口東側)"},{"name": "南機場夜市","lng": "121.5059","lat": "25.02931","addr": "臺北市中正區中華路二段307巷17號(二樓牆體上)"},{"name": "逸仙公園","lng": "121.520488","lat": "25.047962","addr": "臺北市中正區市民大道一段與中山北路一段交叉口(號誌燈上)"},{"name": "二二八和平公園","lng": "121.514159","lat": "25.04184","addr": "臺北市中正區懷寧街103號(音樂台)"},{"name": "中央藝文公園","lng": "121.525702","lat": "25.045759","addr": "臺北市中正區北平東路30號與紹興北街(前號誌)"},{"name": "臺北自來水園區","lng": "121.53075","lat": "25.01322","addr": "臺北市中正區思源街1號1樓(南區大樓樓頂西北角)"},{"name": "臺北自來水園區","lng": "121.533543","lat": "25.012599","addr": "臺北市中正區思源街1號1樓(花園停車場警衛室外牆(汀州路出入口))"},{"name": "捷運台大醫院站","lng": "121.516114","lat": "25.041879","addr": "臺北市中正區公園路與常德街交叉口(東北角路燈)與03-1-1共桿"},{"name": "景福租借站(公館水岸)","lng": "121.5283","lat": "25.01164","addr": "臺北市中正區思源街底自來水園區公館水岸廣場上，永福橋旁(租借站貨櫃屋上方)"},{"name": "主要街道","lng": "121.51213","lat": "25.116755","addr": "台北市北投區致遠二路86號"},{"name": "主要街道","lng": "121.51571","lat": "25.116781","addr": "台北市北投區石牌路二段75巷3號"},{"name": "主要街道","lng": "121.51647","lat": "25.117794","addr": "台北市北投區石牌路二段99巷3號"},{"name": "主要街道","lng": "121.506386","lat": "25.121294","addr": "台北市北投區東華街二段322號"},{"name": "主要街道","lng": "121.50967","lat": "25.09049","addr": "台北市士林區社中街,社正路45巷交叉口(光化交接箱SISE1141)"},{"name": "主要街道","lng": "121.50915","lat": "25.08749","addr": "台北市士林區延平北路六段26號"},{"name": "主要街道","lng": "121.50675","lat": "25.08919","addr": "台北市士林區延平北路6段155巷口(光化交接箱SISE2090)"},{"name": "主要街道","lng": "121.50906","lat": "25.086918","addr": "台北市士林區延平北路六段15號"},{"name": "主要街道","lng": "121.51142","lat": "25.084532","addr": "台北市士林區重慶北路四段195號"},{"name": "主要街道","lng": "121.51173","lat": "25.083199","addr": "台北市士林區重慶北路四段147號"},{"name": "主要街道","lng": "121.509125","lat": "25.086458","addr": "台北市士林區延平北路五段315號"},{"name": "主要街道","lng": "121.50972","lat": "25.084755","addr": "台北市士林區延平北路五段247號"},{"name": "主要街道","lng": "121.50831","lat": "25.08163","addr": "北市士林區葫蘆街葫蘆國小旁(光化交接箱SISE2350)"},{"name": "主要街道","lng": "121.51136","lat": "25.08223","addr": "北市士林區延平北5段136巷公園旁光化交接箱SISE2390"},{"name": "主要街道","lng": "121.50998","lat": "25.082691","addr": "台北市士林區延平北路五段165號"},{"name": "主要街道","lng": "121.51081","lat": "25.07982","addr": "台北市士林區延平北路五段35號"},{"name": "主要街道","lng": "121.5102","lat": "25.08235","addr": "台北市士林區延平北路五段145號"},{"name": "主要街道","lng": "121.471115","lat": "25.108513","addr": "U台北市士林區延平北路9段212號前機箱光化交接箱SISE4261"},{"name": "主要街道","lng": "121.53284","lat": "25.121243","addr": "台北市士林區中山北路七段82巷17號"},{"name": "主要街道","lng": "121.55616","lat": "25.05074","addr": "台北市中山區南京東路四段120巷19弄2號"},{"name": "主要街道","lng": "121.552444","lat": "25.053326","addr": "台北市松山區健康路11號斜對面、北寧公園前(TPE51232)"},{"name": "主要街道","lng": "121.55377","lat": "25.051987","addr": "台北市中山區南京東路四段77號"},{"name": "主要街道","lng": "121.55691","lat": "25.052261","addr": "台北市松山區光復北路138號"},{"name": "主要街道","lng": "121.54954","lat": "25.05473","addr": "台北市松山區敦化北路167號"},{"name": "主要街道","lng": "121.5455","lat": "25.0534","addr": "台北市松山區慶城街20號"},{"name": "主要街道","lng": "121.54662","lat": "25.05396","addr": "台北市松山區慶城街16巷、敦化北路120巷口(TPE52153)"},{"name": "主要街道","lng": "121.54506","lat": "25.05291","addr": "台北市松山區慶城街12、14號前(TPE52252)"},{"name": "主要街道","lng": "121.54483","lat": "25.079567","addr": "台北市中山區北安路464號"},{"name": "主要街道","lng": "121.54728","lat": "25.07909","addr": "台北市中山區北安路536巷口(TPTI5263)"},{"name": "主要街道","lng": "121.5412","lat": "25.07936","addr": "台北市中山區北安路402號"},{"name": "主要街道","lng": "121.54987","lat": "25.083994","addr": "台北市中山區北安路544巷8弄9號"},{"name": "主要街道","lng": "121.54662","lat": "25.081942","addr": "台北市中山區大直街25號"},{"name": "主要街道","lng": "121.555405","lat": "25.085213","addr": "台北市中山區北安路811號"},{"name": "公共電話亭","lng": "121.49992","lat": "25.026342","addr": "台北市萬華區民和街5號"},{"name": "主要街道","lng": "121.58991","lat": "25.078485","addr": "台北市內湖區成功路三段89號"},{"name": "公共電話亭","lng": "121.58495","lat": "25.075552","addr": "台北市內湖區陽光街92巷7弄2號"},{"name": "主要街道","lng": "121.55652","lat": "25.048903","addr": "台北市中山區八德路三段199巷1弄2號"},{"name": "主要街道","lng": "121.55024","lat": "25.061848","addr": "台北市中山區民權東路三段211號"},{"name": "主要街道","lng": "121.546585","lat": "25.058292","addr": "台北市中山區民生東路三段115號"},{"name": "主要街道","lng": "121.544495","lat": "25.058214","addr": "台北市松山區復興北路301號"},{"name": "主要街道","lng": "121.54433","lat": "25.055847","addr": "台北市松山區復興北路203號"},{"name": "主要街道","lng": "121.542915","lat": "25.05213","addr": "台北市中山區復興北路148號"},{"name": "主要街道","lng": "121.54807","lat": "25.06231","addr": "台北市中山區民權東路三段179號"},{"name": "主要街道","lng": "121.51414","lat": "25.110624","addr": "台北市北投區自強街65號"},{"name": "主要街道","lng": "121.51453","lat": "25.11289","addr": "台北市北投區石牌路一段166巷70號"},{"name": "主要街道","lng": "121.5081","lat": "25.11695","addr": "台北市北投區尊賢街242巷口SIPR3061N"},{"name": "主要街道","lng": "121.50781","lat": "25.11813","addr": "台北市北投區尊賢街302巷20號"},{"name": "主要街道","lng": "121.50659","lat": "25.117914","addr": "台北市北投區尊賢街251巷1號"},{"name": "主要街道","lng": "121.509865","lat": "25.117912","addr": "台北市北投區石牌路一段39巷131弄2號"},{"name": "主要街道","lng": "121.50941","lat": "25.090416","addr": "台北市士林區社中街141號"},{"name": "主要街道","lng": "121.510735","lat": "25.088858","addr": "台北市士林區社正路58號"},{"name": "主要街道","lng": "121.50487","lat": "25.090668","addr": "台北市士林區永平街33號"},{"name": "主要街道","lng": "121.51216","lat": "25.0807","addr": "台北市士林區重慶北路4段49巷50弄口(原SE-24-13~18)SISE2470N"},{"name": "主要街道","lng": "121.46798","lat": "25.11951","addr": "台北市北投區知行路210巷側光化交接箱SIKU3140N"},{"name": "主要街道","lng": "121.51143","lat": "25.1383","addr": "台北市北投區中山路44號"},{"name": "主要街道","lng": "121.50317","lat": "25.133074","addr": "台北市北投區公館路33號"},{"name": "主要街道","lng": "121.50024","lat": "25.134123","addr": "台北市北投區中央北路一段146號"},{"name": "主要街道","lng": "121.503","lat": "25.132425","addr": "台北市北投區新市街69號"},{"name": "主要街道","lng": "121.50133","lat": "25.1307","addr": "台北市北投區中央南路一段107號"},{"name": "主要街道","lng": "121.50943","lat": "25.086514","addr": "台北市士林區延平北路五段334號"},{"name": "主要街道","lng": "121.54842","lat": "25.12559","addr": "台北市士林區基河臨時市場側SISL3018N"},{"name": "主要街道","lng": "121.52553","lat": "25.09026","addr": "台北市士林區大東路69號"},{"name": "主要街道","lng": "121.52505","lat": "25.094042","addr": "台北市士林區文林路410號"},{"name": "主要街道","lng": "121.52495","lat": "25.093885","addr": "台北市士林區文林路402號"},{"name": "主要街道","lng": "121.52488","lat": "25.093298","addr": "台北市士林區大東路165號"},{"name": "主要街道","lng": "121.52388","lat": "25.08799","addr": "台北市士林區承德路四段179巷口側光化交接箱SISL3200N"},{"name": "主要街道","lng": "121.52282","lat": "25.105587","addr": "台北市士林區德行西路47號"},{"name": "公共電話亭","lng": "121.56749","lat": "25.028448","addr": "台北市信義區莊敬路423巷8弄12號"},{"name": "公共電話亭","lng": "121.592415","lat": "25.054344","addr": "台北市南港區南港路三段26號"},{"name": "光化箱","lng": "121.522354","lat": "25.044018","addr": "台北市中正區青島東路7號之3"},{"name": "公共電話亭","lng": "121.5437","lat": "25.026514","addr": "台北市大安區復興南路二段195號"},{"name": "主要街道","lng": "121.51535","lat": "25.049023","addr": "台北市中山區市民大道一段100號"},{"name": "主要街道","lng": "121.51812","lat": "25.03268","addr": "台北市中正區羅斯福路一段南海路口-中華電信-戶外熱點(TPS25011)"},{"name": "主要街道","lng": "121.5229","lat": "25.026745","addr": "台北市中正區羅斯福路二段67號"},{"name": "公共電話亭","lng": "121.507454","lat": "25.044046","addr": "台北市萬華區漢中街51號(7—11)(公話1222335)"},{"name": "公共電話亭","lng": "121.50459","lat": "25.042944","addr": "台北市萬華區成都路86號(全家便利超商公話)"},{"name": "公共電話亭","lng": "121.5302","lat": "25.034382","addr": "台北市中正區連雲街81號公話1221135"},{"name": "公共電話亭","lng": "121.50401","lat": "25.02551","addr": "台北市萬華區青年路48號(全家)公話1227936"},{"name": "公共電話亭","lng": "121.50227","lat": "25.021679","addr": "台北市萬華區青年路144號(7—11)(公話1222328)"},{"name": "公共電話亭","lng": "121.52573","lat": "25.027079","addr": "台北市大安區和平東路一段91號"},{"name": "公共電話亭","lng": "121.55315","lat": "25.024153","addr": "台北市大安區和平東路三段163號"},{"name": "公共電話亭","lng": "121.53618","lat": "25.025646","addr": "台北市大安區和平東路二段22號"},{"name": "公共電話亭","lng": "121.50592","lat": "25.042507","addr": "台北市萬華區西寧南路80號(公話1222669)"},{"name": "公共電話亭","lng": "121.503","lat": "25.038303","addr": "台北市萬華區桂林路55號(7-11)(公話1221899)"},{"name": "公共電話亭","lng": "121.551994","lat": "25.03299","addr": "台北市大安區信義路四段214號(公話1234087)"},{"name": "公共電話亭","lng": "121.5334","lat": "25.03101","addr": "台北市大安區新生南路二段34號"},{"name": "公共電話亭","lng": "121.55735","lat": "25.037405","addr": "台北市大安區仁愛路四段418號"},{"name": "公共電話亭","lng": "121.50779","lat": "25.043135","addr": "台北市萬華區中華路一段144號"},{"name": "公共電話亭","lng": "121.508026","lat": "25.042723","addr": "台北市萬華區中華路一段152號"},{"name": "公共電話亭","lng": "121.50686","lat": "25.039032","addr": "台北市萬華區中華路一段182號"},{"name": "公共電話亭","lng": "121.50376","lat": "25.092222","addr": "台北市士林區社中街367號"},{"name": "主要街道","lng": "121.53384","lat": "25.11946","addr": "台北市士林區天母東路69巷"},{"name": "公共電話亭","lng": "121.54632","lat": "25.024506","addr": "台北市大安區和平東路二段134號之4"},{"name": "公共電話亭","lng": "121.509674","lat": "25.045715","addr": "台北市中正區中華路一段29號"},{"name": "公共電話亭","lng": "121.53226","lat": "25.036785","addr": "台北市中正區新生南路一段134號"},{"name": "公共電話亭","lng": "121.51717","lat": "25.045532","addr": "台北市中正區許昌街2號1樓"},{"name": "公共電話亭","lng": "121.53555","lat": "25.03106","addr": "台北市大安區新生南路二段1號"},{"name": "公共電話亭","lng": "121.574234","lat": "25.080568","addr": "台北市內湖區內湖路一段623號"},{"name": "公共電話亭","lng": "121.50809","lat": "25.04259","addr": "台北市萬華區中華路雙號成都右側電亭(公話)"},{"name": "主要街道","lng": "121.58586","lat": "25.04167","addr": "台北市信義區中坡南路201巷口"},{"name": "主要街道","lng": "121.51829","lat": "25.057966","addr": "台北市大同區承德路二段149號"},{"name": "公共電話亭","lng": "121.50864","lat": "25.045393","addr": "台北市萬華區中華路一段82號"},{"name": "公共電話亭","lng": "121.54428","lat": "25.03608","addr": "台北市大安區東豐街9號之1(公話)"},{"name": "公共電話亭","lng": "121.51798","lat": "25.046389","addr": "台北市中正區忠孝西路一段49號(公話1)"},{"name": "公共電話亭","lng": "121.51785","lat": "25.046371","addr": "台北市中正區忠孝西路一段49號"},{"name": "公共電話亭","lng": "121.52398","lat": "25.034592","addr": "台北市中正區杭州南路二段5號1樓(公話)"},{"name": "主要街道","lng": "121.52527","lat": "25.108122","addr": "台北市士林區中山北路六段196號"},{"name": "主要街道","lng": "121.50835","lat": "25.12077","addr": "台北市北投區東華街二段264號"},{"name": "公共電話亭","lng": "121.52869","lat": "25.038675","addr": "台北市中正區仁愛路二段39號公話"},{"name": "公共電話亭","lng": "121.51431","lat": "25.046417","addr": "台北市中正區懷寧街1號"},{"name": "主要街道","lng": "121.51814","lat": "25.105253","addr": "台北市北投區文林北路76號"},{"name": "主要街道","lng": "121.52116","lat": "25.111286","addr": "台北市北投區明德路明德國中(50號)對面側光化交接箱SIPR2150N"},{"name": "主要街道","lng": "121.50199","lat": "25.0916","addr": "台北市士林區社中街438號"},{"name": "主要街道","lng": "121.5074","lat": "25.089613","addr": "台北市士林區延平北路六段142號"},{"name": "主要街道","lng": "121.51237","lat": "25.081629","addr": "台北市士林區重慶北路四段79號之1"},{"name": "主要街道","lng": "121.50945","lat": "25.0858","addr": "台北市士林區延平北路五段287號"},{"name": "公共電話亭","lng": "121.559265","lat": "24.996998","addr": "台北市文山區興隆路三段222號1樓"},{"name": "主要街道","lng": "121.51535","lat": "25.049023","addr": "台北市中山區市民大道一段100號"},{"name": "公共電話亭","lng": "121.55709","lat": "25.036512","addr": "台北市大安區光復南路418號"},{"name": "公共電話亭","lng": "121.5223","lat": "25.042824","addr": "台北市中正區林森南路12號(公話1222377)"},{"name": "公共電話亭","lng": "121.517","lat": "25.045275","addr": "台北市中正區公園路18號"},{"name": "公共電話亭","lng": "121.49501","lat": "25.031216","addr": "台北市萬華區西園路二段140巷44號"},{"name": "公共電話亭","lng": "121.525314","lat": "25.044098","addr": "台北市中正區忠孝東路一段138號(7-11)公話1226337"},{"name": "公共電話亭","lng": "121.53727","lat": "25.03641","addr": "台北市大安區建國南路一段274號(7-11)(公話1205557)"},{"name": "公共電話亭","lng": "121.53319","lat": "25.03141","addr": "台北市大安區新生南路二段34號"},{"name": "公共電話亭","lng": "121.50893","lat": "25.08856","addr": "台北市士林區延平北路六段72號(公話)"},{"name": "公共電話亭","lng": "121.514015","lat": "25.074547","addr": "台北市大同區重慶北路三段331號"},{"name": "公共電話亭","lng": "121.501945","lat": "25.13157","addr": "台北市北投區清江路25巷1號大豐公園地下停車場出口(公話)"},{"name": "公共電話亭","lng": "121.52412","lat": "25.038761","addr": "台北市大安區仁愛路一段47號"},{"name": "公共電話亭","lng": "121.50797","lat": "25.04072","addr": "台北市中正區中華路一段63號"},{"name": "公共電話亭","lng": "121.50797","lat": "25.04072","addr": "台北市中正區中華路一段63號"},{"name": "公共電話亭","lng": "121.50671","lat": "25.038137","addr": "台北市萬華區中華路一段200號"},{"name": "公共電話亭","lng": "121.57335","lat": "25.050362","addr": "台北市松山區饒河街121號"},{"name": "公共電話亭","lng": "121.50252","lat": "25.042141","addr": "台北市萬華區康定路37號"},{"name": "公共電話亭","lng": "121.55071","lat": "25.02201","addr": "台北市大安區樂業街89號"},{"name": "公共電話亭","lng": "121.50876","lat": "25.045492","addr": "台北市萬華區中華路一段82號"},{"name": "公共電話亭","lng": "121.50968","lat": "25.04552","addr": "台北市中正區中華路一段29號之4"},{"name": "公共電話亭","lng": "121.51801","lat": "25.08768","addr": "台北市士林區福港街145號"},{"name": "公共電話亭","lng": "121.53776","lat": "25.03334","addr": "台北市大安區信義路建國南路口假日花市內(公話)"},{"name": "公共電話亭","lng": "121.53285","lat": "25.03395","addr": "台北市大安區新生南路一段173號"},{"name": "公共電話亭","lng": "121.5054","lat": "25.044172","addr": "台北市萬華區峨嵋街83號"},{"name": "公共電話亭","lng": "121.54499","lat": "25.037378","addr": "台北市大安區仁愛路四段10號"},{"name": "主要街道","lng": "121.51701","lat": "25.063204","addr": "台北市大同區民權西路137號"},{"name": "主要街道","lng": "121.5139","lat": "25.068947","addr": "台北市大同區重慶北路三段167號"},{"name": "主要街道","lng": "121.513916","lat": "25.06743","addr": "台北市大同區重慶北路三段115號"},{"name": "主要街道","lng": "121.54734","lat": "25.048332","addr": "台北市松山區八德路二段449號"},{"name": "主要街道","lng": "121.54323","lat": "25.047575","addr": "台北市中山區八德路二段333號"},{"name": "主要街道","lng": "121.540596","lat": "25.048946","addr": "台北市中山區龍江路39號"},{"name": "主要街道","lng": "121.5474","lat": "25.05007","addr": "台北市松山區敦化北路4巷1號"},{"name": "主要街道","lng": "121.54425","lat": "25.05006","addr": "台北市松山區復興北路35號"},{"name": "主要街道","lng": "121.55342","lat": "25.049961","addr": "台北市松山區北寧路56巷1號"},{"name": "主要街道","lng": "121.555305","lat": "25.050165","addr": "台北市松山區南京東路四段120巷29弄2號"},{"name": "主要街道","lng": "121.54092","lat": "25.06228","addr": "台北市中山區民權東路三段、龍江路口(光化箱編號TPN38014)"},{"name": "主要街道","lng": "121.532005","lat": "25.05595","addr": "台北市中山區松江路170巷22號"},{"name": "主要街道","lng": "121.54356","lat": "25.044415","addr": "台北市中山區復興南路一段68號"},{"name": "主要街道","lng": "121.54134","lat": "25.04193","addr": "台北市大安區忠孝東路三段249號"},{"name": "主要街道","lng": "121.53727","lat": "25.040323","addr": "台北市大安區建國南路一段188號"},{"name": "主要街道","lng": "121.53309","lat": "25.03981","addr": "台北市大安區新生南路一段113號"},{"name": "主要街道","lng": "121.54092","lat": "25.041277","addr": "台北市大安區忠孝東路三段236號"},{"name": "主要街道","lng": "121.54284","lat": "25.038357","addr": "台北市大安區仁愛路三段141號"},{"name": "主要街道","lng": "121.53314","lat": "25.044065","addr": "台北市大安區新生南路一段1號"},{"name": "主要街道","lng": "121.53831","lat": "25.041985","addr": "台北市大安區忠孝東路三段67號"},{"name": "主要街道","lng": "121.55419","lat": "25.042698","addr": "台北市大安區延吉街123號前(TPE14027)"},{"name": "主要街道","lng": "121.549126","lat": "25.038656","addr": "台北市大安區敦化南路一段248號前(TPE14035)"},{"name": "主要街道","lng": "121.54784","lat": "25.038082","addr": "台北市大安區仁愛路四段87號"},{"name": "主要街道","lng": "121.55692","lat": "25.041645","addr": "台北市大安區忠孝東路四段329號前(TPE14047)"},{"name": "主要街道","lng": "121.54335","lat": "25.039711","addr": "台北市中山區復興南路一段200號"},{"name": "主要街道","lng": "121.55009","lat": "25.047827","addr": "台北市松山區八德路三段10號"},{"name": "主要街道","lng": "121.557205","lat": "25.037992","addr": "台北市大安區仁愛路四段447號"},{"name": "主要街道","lng": "121.55737","lat": "25.040443","addr": "台北市大安區光復南路244號前(TPE14045)"},{"name": "主要街道","lng": "121.536736","lat": "25.041458","addr": "台北市大安區建國南路一段152號"},{"name": "主要街道","lng": "121.55768","lat": "25.051262","addr": "台北市松山區南京東路四段186號"},{"name": "光化箱","lng": "121.521286","lat": "25.04462","addr": "台北市中正區鎮江街2號"},{"name": "主要街道","lng": "121.527054","lat": "25.095411","addr": "台北市士林區中正路195號"},{"name": "主要街道","lng": "121.55928","lat": "25.05879","addr": "台北市松山區民生東路5段85~81號公園"},{"name": "主要街道","lng": "121.56307","lat": "25.053946","addr": "台北市松山區健康路264號前"},{"name": "主要街道","lng": "121.56075","lat": "25.04905","addr": "台北市松山區八德路4段91巷口"},{"name": "主要街道","lng": "121.56101","lat": "25.054216","addr": "台北市松山區健康路179號前"},{"name": "主要街道","lng": "121.5669","lat": "25.06066","addr": "台北市松山區撫遠街255巷口對面"},{"name": "主要街道","lng": "121.567375","lat": "25.05582","addr": "台北市松山區健康路325巷16號西側"},{"name": "主要街道","lng": "121.56806","lat": "25.052229","addr": "台北市松山區寶清街83號西側"},{"name": "主要街道","lng": "121.56546","lat": "25.055285","addr": "台北市松山區三民路68巷底西松高中西側"},{"name": "主要街道","lng": "121.556435","lat": "25.056412","addr": "台北市松山區延壽街401號南側"},{"name": "主要街道","lng": "121.56885","lat": "25.054304","addr": "台北市松山區健康路620號西側健康公園北側"},{"name": "主要街道","lng": "121.56969","lat": "25.023602","addr": "台北市信義區吳興街487號前"},{"name": "主要街道","lng": "121.56703","lat": "25.02723","addr": "台北市信義區莊敬路435號前"},{"name": "主要街道","lng": "121.56245","lat": "25.029503","addr": "台北市信義區莊敬路247號前"},{"name": "主要街道","lng": "121.55885","lat": "25.032316","addr": "台北市信義區基隆路2段10號前"},{"name": "主要街道","lng": "121.55755","lat": "25.03206","addr": "台北市信義區光復南路507號前"},{"name": "主要街道","lng": "121.56343","lat": "25.028334","addr": "台北市信義區莊敬路315號前"},{"name": "主要街道","lng": "121.56485","lat": "25.027758","addr": "台北市信義區莊敬路371號前"},{"name": "主要街道","lng": "121.56177","lat": "25.040525","addr": "台北市信義區逸仙路48號前"},{"name": "主要街道","lng": "121.561","lat": "25.03096","addr": "台北市信義區莊敬路197巷口"},{"name": "主要街道","lng": "121.56985","lat": "25.028435","addr": "台北市信義區信義路5段150巷14弄16號前"},{"name": "主要街道","lng": "121.56785","lat": "25.028437","addr": "台北市信義區松仁路202巷2弄36號對面"},{"name": "主要街道","lng": "121.56254","lat": "25.03945","addr": "台北市信義區逸仙路26巷口"},{"name": "主要街道","lng": "121.58886","lat": "25.03468","addr": "台北市信義區福德街251巷口"},{"name": "主要街道","lng": "121.5786","lat": "25.039824","addr": "台北市信義區松山路465巷3號前"},{"name": "主要街道","lng": "121.5769","lat": "25.035078","addr": "台北市信義區信義路6段74號前"},{"name": "主要街道","lng": "121.59236","lat": "25.08018","addr": "台北市內湖區康寧路一段63號旁"},{"name": "主要街道","lng": "121.580376","lat": "25.078415","addr": "台北市內湖區文德路46號旁"},{"name": "主要街道","lng": "121.5718","lat": "25.08373","addr": "台北市內湖區內湖路1段411巷口"},{"name": "主要街道","lng": "121.563576","lat": "25.083382","addr": "台北市內湖區內湖路1段207號前"},{"name": "主要街道","lng": "121.56028","lat": "25.085285","addr": "台北市內湖區內湖路1段61巷口"},{"name": "主要街道","lng": "121.55813","lat": "25.08523","addr": "台北市內湖區內湖路1段1巷口"},{"name": "主要街道","lng": "121.56802","lat": "25.08451","addr": "台北市內湖區內湖路1段285巷65弄，口"},{"name": "主要街道","lng": "121.61253","lat": "25.067476","addr": "台北市內湖區五分街6號前"},{"name": "主要街道","lng": "121.61624","lat": "25.070126","addr": "台北市內湖區東湖路119巷49弄30號對面路旁"},{"name": "主要街道","lng": "121.6151","lat": "25.06855","addr": "台北市內湖區東湖路113巷口"},{"name": "主要街道","lng": "121.61476","lat": "25.06683","addr": "台北市內湖區安康路440對面"},{"name": "主要街道","lng": "121.61641","lat": "25.068312","addr": "台北市內湖區東湖路121號前"},{"name": "主要街道","lng": "121.61396","lat": "25.05618","addr": "台北市南港區三重路27號1樓"},{"name": "主要街道","lng": "121.519066","lat": "25.046112","addr": "台北市中正區忠孝西路一段21號"},{"name": "主要街道","lng": "121.53942","lat": "25.00662","addr": "台北市文山區羅斯福路5段53巷口"},{"name": "公共電話亭","lng": "121.54285","lat": "25.023502","addr": "台北市大安區和平東路二段118巷33號"},{"name": "公共電話亭","lng": "121.52189","lat": "25.02818","addr": "台北市大安區羅斯福路二段17號(公話)"},{"name": "公共電話亭","lng": "121.52133","lat": "25.032642","addr": "台北市中正區愛國東路112號(公話)"},{"name": "公共電話亭","lng": "121.5349","lat": "25.117825","addr": "台北市士林區忠誠路二段249號"},{"name": "主要街道","lng": "121.572014","lat": "25.043734","addr": "台北市信義區松信路148號"},{"name": "主要街道","lng": "121.5685","lat": "25.03843","addr": "台北市信義區松仁路228巷口"},{"name": "主要街道","lng": "121.56521","lat": "25.02749","addr": "台北市信義區莊敬路380號"},{"name": "主要街道","lng": "121.57932","lat": "25.041435","addr": "台北市信義區忠孝東路五段526號"},{"name": "主要街道","lng": "121.61846","lat": "25.069544","addr": "台北市內湖區康樂街72巷3號"},{"name": "主要街道","lng": "121.4989","lat": "25.135118","addr": "台北市北投區中央北路一段135號"},{"name": "主要街道","lng": "121.49565","lat": "25.136608","addr": "台北市北投區中央北路二段29號"},{"name": "主要街道","lng": "121.52689","lat": "25.08718","addr": "台北市士林區中山北路5段260巷口(光化交接箱SISL1015N)"},{"name": "主要街道","lng": "121.52457","lat": "25.106577","addr": "台北市士林區中山北路六段153號"},{"name": "主要街道","lng": "121.52274","lat": "25.105356","addr": "台北市士林區德行西路53號"},{"name": "主要街道","lng": "121.52701","lat": "25.111788","addr": "台北市士林區士東路20號"},{"name": "主要街道","lng": "121.53644","lat": "25.110249","addr": "台北市士林區德行東路285號"},{"name": "主要街道","lng": "121.52894","lat": "25.101723","addr": "台北市士林區至誠路二段35號"},{"name": "主要街道","lng": "121.51958","lat": "25.101603","addr": "台北市士林區文林路731號"},{"name": "主要街道","lng": "121.55802","lat": "25.046534","addr": "台北市大安區光復南路35號"},{"name": "主要街道","lng": "121.55861","lat": "25.0351","addr": "台北市大安區基隆路一段364巷26號"},{"name": "主要街道","lng": "121.57764","lat": "25.03932","addr": "台北市信義區松德路1號"},{"name": "主要街道","lng": "121.58089","lat": "25.042624","addr": "台北市信義區忠孝東路五段666號"},{"name": "主要街道","lng": "121.52973","lat": "25.03367","addr": "台北市大安區永康街7巷口"},{"name": "主要街道","lng": "121.56598","lat": "24.983116","addr": "台北市文山區木新路二段268號"},{"name": "主要街道","lng": "121.53858","lat": "25.004457","addr": "台北市文山區羅斯福路五段172號"},{"name": "主要街道","lng": "121.54033","lat": "24.99944","addr": "台北市文山區羅斯福路六段33號"},{"name": "主要街道","lng": "121.5393","lat": "25.000715","addr": "台北市文山區羅斯福路五段264號"},{"name": "主要街道","lng": "121.57078","lat": "25.018814","addr": "台北市信義區吳興街600巷84號"},{"name": "光化箱","lng": "121.502655","lat": "25.045965","addr": "台北市萬華區環河南路一段272號"},{"name": "主要街道","lng": "121.46609","lat": "25.11877","addr": "台北市北投區知行路75-11對面(光化交接箱SIKU3150)"},{"name": "主要街道","lng": "121.46795","lat": "25.118292","addr": "台北市北投區知行路72號對面(光化交接箱SIKU3170)"},{"name": "主要街道","lng": "121.51894","lat": "25.109184","addr": "台北市北投區明德路93號"},{"name": "主要街道","lng": "121.51773","lat": "25.11091","addr": "台北市北投區西安街,自強街141巷口(光化交接箱SIPR2261)"},{"name": "主要街道","lng": "121.51246","lat": "25.109934","addr": "台北市北投區文林北路228號"},{"name": "主要街道","lng": "121.51033","lat": "25.1123","addr": "台北市北投區承德路七段106巷口光化交接箱SIPR2450"},{"name": "主要街道","lng": "121.50864","lat": "25.11438","addr": "台北市北投區承德路7段188巷口光化交接箱SIPR3030"},{"name": "主要街道","lng": "121.50557","lat": "25.116419","addr": "台北市北投區承德路七段286號"},{"name": "主要街道","lng": "121.50354","lat": "25.12031","addr": "U北市北投區立農國小大門口旁光化交接箱SIPR3161"},{"name": "主要街道","lng": "121.50542","lat": "25.11582","addr": "U北市北投區承德路7段與立農街口旁光化交接箱SIPR3190"},{"name": "主要街道","lng": "121.50154","lat": "25.11958","addr": "北市北投區承德路7段公館路口光化交接箱SIPR3200"},{"name": "主要街道","lng": "121.51203","lat": "25.114294","addr": "台北市北投區致遠二路3號"}]